id,city,number,postcode,street,village,brand,operator,lon,lat,address,LSOA,MSOA,population_density,income
node/773426444,Abbots Langley,,WD50QP,,,Post Office,,-0.4108864,51.721595,Abbots Langley WD5 0QP,Three Rivers 001D,Three Rivers 001,316.360721113326,54500.0
node/2422174402,Abbots Langley,42,WD50AR,High Street,,Post Office,,-0.4176178,51.7059818,42 High Street  Abbots Langley WD5 0AR,Three Rivers 001C,Three Rivers 001,1242.65523265046,54500.0
node/10203656116,Aberaeron,20-21,SA460AS,Market Street,,Post Office,,-4.259452,52.2425943,20-21 Market Street  Aberaeron SA46 0AS,Ceredigion 005A,Ceredigion 005,764.806270147272,36900.0
node/4696902893,Aberaeron,,SA460HF,,Llwyncelyn,Post Office,,-4.2817088,52.213411,Llwyncelyn Aberaeron SA46 0HF,Ceredigion 005B,Ceredigion 005,47.232693411888,36900.0
node/9921121048,Aberdare,28,CF447AU,Whitcombe Street,,Post Office,,-3.4456329,51.7140589,28 Whitcombe Street  Aberdare CF44 7AU,Rhondda Cynon Taf 002A,Rhondda Cynon Taf 002,4511.51707704527,36200.0
node/12048993060,Abergavenny,17A,NP75AJ,Cibi Walk,,Post Office,,-3.018433,51.8244655,17A Cibi Walk  Abergavenny NP7 5AJ,Monmouthshire 001E,Monmouthshire 001,2537.12278460801,40900.0
node/6761818164,Abergele,21,LL227AG,Market Street,,Post Office,,-3.582537,53.2842793,21 Market Street  Abergele LL22 7AG,Conwy 010B,Conwy 010,186.255147491385,33400.0
node/1037932963,Abergele,,LL228HH,Abergele Road,,,,-3.6422214,53.2899245,Abergele Road  Abergele LL22 8HH,Conwy 009D,Conwy 009,304.099758837715,36200.0
node/11647030984,Abergele,,LL228AW,,Betws-yn-Rhos,Post Office,,-3.6392087,53.2475567,Betws-yn-Rhos Abergele LL22 8AW,Conwy 014A,Conwy 014,21.7275780269869,38500.0
node/4583174700,Abergele,,LL228PP,,,,,-3.6852967,53.1926643,Abergele LL22 8PP,Conwy 014B,Conwy 014,11.682752317577,38500.0
node/460019643,Abersoch,,LL537DL,,,Post Office,,-4.5047658,52.8245914,Abersoch LL53 7DL,Gwynedd 014C,Gwynedd 014,93.2322269863956,36300.0
node/12269378178,Abersychan,8,NP48PH,Station Street,,Post Office,,-3.058476,51.7241663,8 Station Street  Abersychan NP4 8PH,Torfaen 002E,Torfaen 002,656.487194282924,34200.0
node/10704403638,Abertridwr,,CF834DH,The Square,,Post Office,,-3.2716662,51.5963798,The Square  Abertridwr CF83 4DH,Caerphilly 018B,Caerphilly 018,2665.9361302442,33100.0
node/1037909615,Aberystwyth,,SY234HA,,,Post Office,,-4.0565685,52.3159641,Aberystwyth SY23 4HA,Ceredigion 005C,Ceredigion 005,25.6922829236878,36900.0
node/5016918818,Aberystwyth,36,SY232AB,Terrace Road,,Post Office,,-4.0835007,52.4157277,36 Terrace Road  Aberystwyth SY23 2AB,Ceredigion 002B,Ceredigion 002,6811.15591397849,34600.0
node/1715083565,Aberystwyth,,SY231RU,Penparcau Road,,Post Office,,-4.0723112,52.4009797,Penparcau Road  Aberystwyth SY23 1RU,Ceredigion 003B,Ceredigion 003,2289.37224669603,37400.0
node/1270594584,Aberystwyth,,SY233EH,,,Post Office,,-3.9986264,52.4375297,Aberystwyth SY23 3EH,Ceredigion 001E,Ceredigion 001,68.8054983238216,41500.0
node/5690934919,Abingdon,5-13,OX145BL,West St Helen Street,,Post Office,Your Coop Food,-1.2832948,51.6696946,5-13 West St Helen Street  Abingdon OX14 5BL,Vale of White Horse 006H,Vale of White Horse 006,5434.1405788541,56400.0
node/1037932977,Accrington,602,BB52SB,Blackburn Road,Rising Bridge,Post Office,,-2.3324278,53.7258128,602 Blackburn Road Rising Bridge Accrington BB5 2SB,Rossendale 002D,Rossendale 002,164.045150792594,37300.0
node/660192806,Accrington,38,BB55NS,Pickup Street,Clayton Le Moors,Post Office,,-2.3852918,53.7750551,38 Pickup Street Clayton Le Moors Accrington BB5 5NS,Hyndburn 002E,Hyndburn 002,6056.74342105263,38400.0
node/268514289,Accrington,175,BB56QA,Avenue Parade,,,,-2.3550223,53.7564838,175 Avenue Parade  Accrington BB5 6QA,Hyndburn 004G,Hyndburn 004,8432.37704918032,34700.0
node/347144302,Accrington,18,BB51EB,Abbey Street,,,,-2.3624673,53.7536528,18 Abbey Street  Accrington BB5 1EB,Hyndburn 008B,Hyndburn 008,4048.39460214053,39000.0
node/1037932970,Accrington,273,BB50AL,Blackburn Road,,Post Office,,-2.3768582,53.7527293,273 Blackburn Road  Accrington BB5 0AL,Hyndburn 006A,Hyndburn 006,3359.26590863754,29900.0
node/11930817920,Adderbury,,OX173LS,High Street,,Post Office,,-1.3139941,52.0154513,High Street  Adderbury OX17 3LS,Cherwell 008B,Cherwell 008,229.510033187234,60600.0
node/2561657902,Addlestone,117,KT152AS,Station Road,,Post Office,Post Office Ltd,-0.4869505,51.3718963,117 Station Road  Addlestone KT15 2AS,Runnymede 007C,Runnymede 007,3051.87385740402,61700.0
node/5573896060,Albrighton,,WV73NA,Newport Road,,,,-2.2921309,52.6482215,Newport Road  Albrighton WV7 3NA,Shropshire 027C,Shropshire 027,152.114405853516,48900.0
node/6391981660,Alcester,30,B495AB,High Street,,Post Office,,-1.8702054,52.2142225,30 High Street  Alcester B49 5AB,Stratford-on-Avon 006A,Stratford-on-Avon 006,114.632947064824,42700.0
node/4459343338,Alcester,,B504AW,Salford Road,Bidford-On-Avon,,,-1.8615981,52.1645434,Salford Road Bidford-On-Avon Alcester B50 4AW,Stratford-on-Avon 012C,Stratford-on-Avon 012,524.872795534258,49300.0
node/443372993,Aldershot,62,GU124ST,Redan Road,,Post Office,,-0.7431385,51.2511378,62 Redan Road  Aldershot GU12 4ST,Rushmoor 009F,Rushmoor 009,4900.70921985815,56500.0
node/4789160312,Aldershot,82,GU113PS,Church Road,,,,-0.7526333,51.2371301,82 Church Road  Aldershot GU11 3PS,Rushmoor 011B,Rushmoor 011,4630.87248322147,66400.0
node/1407302644,Alford,,LN139PY,Alford Road,,Post Office,,0.2006638,53.2659658,Alford Road  Alford LN13 9PY,East Lindsey 008C,East Lindsey 008,41.3449609135038,32200.0
node/1037914755,Alford,6,LN139DG,West Street,,Post Office,,0.1785928,53.2613623,6 West Street  Alford LN13 9DG,East Lindsey 008A,East Lindsey 008,270.519237264715,32200.0
node/11277845774,Alfreton,115,DE555PP,High Street,,Post Office,,-1.3403692,53.1444008,115 High Street  Alfreton DE55 5PP,Bolsover 008E,Bolsover 008,1814.1501650165,38600.0
node/1037932969,Alfreton,28A,DE551AA,High Street,Swanwick,,,-1.4005964,53.0753497,28A High Street Swanwick Alfreton DE55 1AA,Amber Valley 004E,Amber Valley 004,1768.0,39500.0
node/320175719,Alfreton,21-23,DE556JA,Wesley Road,Stonebroom,,,-1.3920759,53.1289992,21-23 Wesley Road Stonebroom Alfreton DE55 6JA,North East Derbyshire 013B,North East Derbyshire 013,1157.48563703954,37600.0
node/320193123,Alfreton,92,DE556HH,Main Road,,,,-1.3860659,53.1366763,92 Main Road  Alfreton DE55 6HH,North East Derbyshire 013A,North East Derbyshire 013,194.773348279969,37600.0
node/6528231948,Alfreton,,DE555HH,Woburn Close,Blackwell,,,-1.3539173,53.1197018,Woburn Close Blackwell Alfreton DE55 5HH,Bolsover 009A,Bolsover 009,1004.70957613814,37300.0
node/11982046089,Alfreton,36,DE555TY,Littlemoor Lane,,Post Office,,-1.3349893,53.1309855,36 Littlemoor Lane  Alfreton DE55 5TY,Bolsover 008B,Bolsover 008,1229.14257393028,38600.0
node/3413366126,Alfreton,2,DE552AS,Alfreton Road,,Post Office,,-1.3445223,53.1006667,2 Alfreton Road  Alfreton DE55 2AS,Bolsover 009E,Bolsover 009,4317.58841680512,37300.0
node/1037914761,Alnwick,28,NE662XN,Grange Road,Shilbottle,,,-1.688064,55.3710957,28 Grange Road Shilbottle Alnwick NE66 2XN,Northumberland 006F,Northumberland 006,127.601998334721,38800.0
node/4273060913,Alnwick,8,NE664AT,Front Street,Glanton,Post Office,,-1.8895063,55.4243544,8 Front Street Glanton Alnwick NE66 4AT,Northumberland 007D,Northumberland 007,4.15884273431178,42900.0
node/1570848586,Alnwick,21,NE661QR,Wagonway Road,,Post Office,,-1.6992911,55.4081118,21 Wagonway Road  Alnwick NE66 1QR,Northumberland 005D,Northumberland 005,4078.21229050279,36000.0
node/1037914764,Alnwick,52,NE662RJ,Northumberland Street,Alnmouth,Post Office,,-1.6125086,55.3881698,52 Northumberland Street Alnmouth Alnwick NE66 2RJ,Northumberland 004A,Northumberland 004,32.901613793879,48000.0
node/626491714,Alnwick,,NE663UH,Front Street,Embleton,Post Office,,-1.6343582,55.4967256,Front Street Embleton Alnwick NE66 3UH,Northumberland 004C,Northumberland 004,27.1495575144232,48000.0
node/1037914762,Alnwick,,NE665PU,,,,,-1.9127789,55.5492099,Alnwick NE66 5PU,Northumberland 003B,Northumberland 003,4.37555860450207,36500.0
node/1037914760,Alnwick,,NE663ES,Alnwick,,,,-1.6627464,55.5017137,Alnwick  Alnwick NE66 3ES,Northumberland 004C,Northumberland 004,27.1495575144232,48000.0
node/534753490,Alresford,,SO240PX,School Road,Cheriton,,,-1.1693825,51.052988,School Road Cheriton Alresford SO24 0PX,Winchester 004A,Winchester 004,34.8370262534544,51900.0
node/7088598804,Alresford,47,SO249BT,West Street,,,The Co-operative Food,-1.1637484,51.0897686,47 West Street  Alresford SO24 9BT,Winchester 004E,Winchester 004,1782.7241168062,51900.0
node/1039830395,Alston,,CA93PL,Vicarage Terrace,Nenthead,Post Office,,-2.3413936,54.7880386,Vicarage Terrace Nenthead Alston CA9 3PL,Eden 001A,Eden 001,13.7937585583849,40300.0
node/2459957836,Alton,130,GU344ES,London Road,,,,-0.9481529,51.1636626,130 London Road  Alton GU34 4ES,East Hampshire 001D,East Hampshire 001,696.680906999671,67900.0
node/9568974468,Altrincham,68,WA145AB,Park Road,,Post Office,Spar,-2.3413109,53.4042658,68 Park Road  Altrincham WA14 5AB,Trafford 020A,Trafford 020,5776.90224082738,56900.0
node/1037938032,Altrincham,215,WA159SZ,Ashley Road,,Post Office,,-2.3440767,53.3762597,215 Ashley Road  Altrincham WA15 9SZ,Trafford 027C,Trafford 027,1689.31159420289,55100.0
node/299470938,Altrincham,,WA141SF,,,Post Office,,-2.3490127,53.3885054,Altrincham WA14 1SF,Trafford 025B,Trafford 025,2908.65384615384,55500.0
node/487814952,Altrincham,,WA143BA,,,Post Office,,-2.3612556,53.3722422,Altrincham WA14 3BA,Trafford 027D,Trafford 027,3672.8837876614,55100.0
node/1037938031,Altrincham,,WA157DD,,,Post Office,,-2.3116142,53.3924984,Altrincham WA15 7DD,Trafford 022B,Trafford 022,6036.46833013435,40700.0
node/6920140729,Ambleside,,LA229BS,Market Cross,,Post Office,,-2.9623108,54.4324677,Market Cross  Ambleside LA22 9BS,South Lakeland 001A,South Lakeland 001,1306.015835442,44200.0
node/612959355,Ammanford,17,SA183QJ,Ammanford Road,Tycroes,,,-4.0204635,51.7791747,17 Ammanford Road Tycroes Ammanford SA18 3QJ,Carmarthenshire 017C,Carmarthenshire 017,223.108418967768,41800.0
node/1040126283,Ammanford,103,SA181ND,Cwmamman Road,Garnant,,,-3.9057139,51.8014722,103 Cwmamman Road Garnant Ammanford SA18 1ND,Carmarthenshire 010A,Carmarthenshire 010,134.425776027293,34900.0
node/327717212,Ammanford,4A,SA183DE,Quay Street,,Post Office,,-3.987711,51.7923601,4A Quay Street  Ammanford SA18 3DE,Carmarthenshire 013B,Carmarthenshire 013,1780.28230659809,35900.0
node/970884034,Ampthill,17,MK452PL,Church Street,,,,-0.4921143,52.031989,17 Church Street  Ampthill MK45 2PL,Central Bedfordshire 012E,Central Bedfordshire 012,4042.55319148936,57300.0
node/248003824,"Angmering, Littlehampton",,BN164EA,The Square,Angmering,Post Office,Co-op Food,-0.4839647,50.8288141,"The Square Angmering Angmering, Littlehampton BN16 4EA",Arun 005B,Arun 005,1322.08241397817,46700.0
node/256145218,Arkholme,,LA61AT,Kirkby Lonsdale Road,,,,-2.6380232,54.1440494,Kirkby Lonsdale Road  Arkholme LA6 1AT,Lancaster 002A,Lancaster 002,57.5704267778393,46700.0
node/10094643913,Arlesey,78,SG156XR,Stotfold Road,,Post Office,Nisa Local,-0.2591929,52.0238437,78 Stotfold Road  Arlesey SG15 6XR,Central Bedfordshire 010B,Central Bedfordshire 010,644.04476936016,51400.0
node/1755071490,Arundel,2,BN189LA,Hill Terrace,Tortington,,,-0.5723619,50.8530184,2 Hill Terrace Tortington Arundel BN18 9LA,Arun 001A,Arun 001,151.934794650629,47900.0
node/1362098042,Arundel,,BN180PJ,The Street,Walberton,,,-0.6196563,50.8453644,The Street Walberton Arundel BN18 0PJ,Arun 003F,Arun 003,324.313115603939,50900.0
node/292958770,Arundel,"2,4",BN189AA,High Street,,Post Office,Post Office Ltd,-0.5529649,50.8540538,"2,4 High Street  Arundel BN18 9AA",Arun 001C,Arun 001,42.1927046921906,47900.0
node/8592579478,Ash,58,GU126LR,Ash Street,,Post Office,One Stop,-0.7253307,51.2456076,58 Ash Street  Ash GU12 6LR,Guildford 010A,Guildford 010,3394.19269687637,52300.0
node/6566366573,Ashbourne,,DE62BN,Mayfield Road,,,,-1.7616679,53.0088998,Mayfield Road  Ashbourne DE6 2BN,Derbyshire Dales 010B,Derbyshire Dales 010,40.0945572462398,46300.0
node/6572266233,Ashbourne,,DE62HB,Church Lane,Ellastone,Post Office,,-1.828227,52.9879797,Church Lane Ellastone Ashbourne DE6 2HB,East Staffordshire 001E,East Staffordshire 001,50.811602150186,45300.0
node/2090137033,Ashbourne,,DE62FX,,Alstonefield,,,-1.8075027,53.0972187,Alstonefield Ashbourne DE6 2FX,Staffordshire Moorlands 007A,Staffordshire Moorlands 007,27.1080538575034,44400.0
node/1273778020,Ashbourne,,DE61LW,Moor Lane,Osmaston,,,-1.7031587,52.9905948,Moor Lane Osmaston Ashbourne DE6 1LW,Derbyshire Dales 010B,Derbyshire Dales 010,40.0945572462398,46300.0
node/2235070609,Ashbourne,,DE61RT,Dig Street,,,,-1.7318169,53.0167513,Dig Street  Ashbourne DE6 1RT,Derbyshire Dales 009B,Derbyshire Dales 009,2838.04086538461,39400.0
node/257315735,Ashburton,4,TQ137DD,St Lawrence Lane,,Post Office,,-3.7553953,50.5152793,4 St Lawrence Lane  Ashburton TQ13 7DD,Teignbridge 017B,Teignbridge 017,1365.13157894736,41400.0
node/867116614,Ashby-de-la-Zouch,19-21,LE651AF,Market Street,,Post Office,,-1.4726488,52.7468782,19-21 Market Street  Ashby-de-la-Zouch LE65 1AF,North West Leicestershire 003B,North West Leicestershire 003,3537.21444362564,46400.0
node/1157307767,Ashby-de-la-Zouch,76,LE651SH,St. Matthew's Avenue,Worthington,,,-1.3971878,52.7816426,76 St. Matthew's Avenue Worthington Ashby-de-la-Zouch LE65 1SH,North West Leicestershire 005C,North West Leicestershire 005,136.398217585045,49800.0
node/7229872445,Ashford,2,TN235EW,Stanhope Road,,,,0.8530964,51.1302936,2 Stanhope Road  Ashford TN23 5EW,Ashford 008C,Ashford 008,12455.5160142348,45100.0
node/3573166774,Ashford,72,TW152TW,Church Road,,,,-0.4611944,51.4327312,72 Church Road  Ashford TW15 2TW,Spelthorne 003C,Spelthorne 003,5984.80420806545,71400.0
node/1043615619,Ashington,154,NE639BG,Hawthorn Road,,Post Office,,-1.5610161,55.1800573,154 Hawthorn Road  Ashington NE63 9BG,Northumberland 010E,Northumberland 010,7576.07013924703,27900.0
node/1043615496,Ashington,,NE638RJ,Station Road,,,,-1.5742564,55.1832909,Station Road  Ashington NE63 8RJ,Northumberland 010B,Northumberland 010,2379.87307343608,27900.0
node/1043615620,Askam-in-Furness,75,LA167AD,Duke Street,,Post Office,,-3.2060183,54.1864635,75 Duke Street  Askam-in-Furness LA16 7AD,Barrow-in-Furness 001A,Barrow-in-Furness 001,73.9759658870655,40300.0
node/30296356,Aston,,OX182DL,The Square,,Post Office,,-1.5084096,51.7251184,The Square  Aston OX18 2DL,West Oxfordshire 015C,West Oxfordshire 015,63.4198631337401,53800.0
node/11882412849,Aston Upthorpe,,OX119EQ,Thorpe Street,,Post Office,,-1.2029674,51.571314,Thorpe Street  Aston Upthorpe OX11 9EQ,South Oxfordshire 015E,South Oxfordshire 015,65.3573196897177,67000.0
node/771230647,Atherstone,,CV91NS,Manor Road,Mancetter,Post Office,,-1.529558,52.5686148,Manor Road Mancetter Atherstone CV9 1NS,North Warwickshire 003F,North Warwickshire 003,419.556872516667,39200.0
node/771230650,Atherstone,90,CV92AF,Coleshill Road,,Post Office,,-1.5502944,52.5734906,90 Coleshill Road  Atherstone CV9 2AF,North Warwickshire 003A,North Warwickshire 003,2999.05647661409,39200.0
node/5637264471,Atherstone,17,CV92QH,Tamworth Road,Wood End,Post Office,,-1.64452,52.58334,17 Tamworth Road Wood End Atherstone CV9 2QH,North Warwickshire 002D,North Warwickshire 002,146.086123528875,41600.0
node/12442351318,Atherstone,101-103,CV91AB,Long Street,,,,-1.5463395,52.5770966,101-103 Long Street  Atherstone CV9 1AB,North Warwickshire 003B,North Warwickshire 003,5696.95176087599,39200.0
node/1037932975,Atherstone,11,CV92JE,Knowle Hill,Hurley,Post Office,,-1.6497166,52.5586401,11 Knowle Hill Hurley Atherstone CV9 2JE,North Warwickshire 002E,North Warwickshire 002,458.480594014461,41600.0
node/1529816992,Attleborough,1,NR171LL,Long Street,Great Ellingham,,,0.9738597,52.5327701,1 Long Street Great Ellingham Attleborough NR17 1LL,Breckland 010B,Breckland 010,121.495997990021,46700.0
node/10604427554,Attleborough,,NR171RB,The Green,Old Buckenham,,Londis,1.0383555,52.4817707,The Green Old Buckenham Attleborough NR17 1RB,Breckland 013A,Breckland 013,83.8292581087715,47100.0
node/8865763622,Aveton Gifford,,TQ74LL,Fore Street,,,,-3.8359963,50.3146333,Fore Street  Aveton Gifford TQ7 4LL,South Hams 008A,South Hams 008,50.4383359863153,47900.0
node/746935872,Axbridge,,BS262BN,St Mary Street,,Post Office,,-2.8167117,51.2870627,St Mary Street  Axbridge BS26 2BN,Sedgemoor 001A,Sedgemoor 001,420.277935935556,49900.0
node/1633101771,Axbridge,,BS262TE,Bristol Road,Rooksbridge,Post Office,,-2.9062418,51.2668907,Bristol Road Rooksbridge Axbridge BS26 2TE,Sedgemoor 002C,Sedgemoor 002,98.0637845965499,44800.0
node/1123026416,Axminster,,EX137RF,,,Post Office,,-3.0329218,50.7760129,Axminster EX13 7RF,East Devon 007D,East Devon 007,77.7844033657987,47100.0
node/3468002888,Axminster,,EX138AX,,,Post Office,,-3.0323903,50.7469755,Axminster EX13 8AX,East Devon 007D,East Devon 007,77.7844033657987,47100.0
node/473854903,Axminster,,EX135NU,West Street,,Post Office,,-2.9999577,50.7818349,West Street  Axminster EX13 5NU,East Devon 005C,East Devon 005,209.841698367897,40700.0
node/4138831085,Backbarrow,,LA128QF,,,Post Office,,-2.992771,54.2509113,Backbarrow LA12 8QF,South Lakeland 007C,South Lakeland 007,26.8342396675527,47700.0
node/1042092480,Badminton,,GL91BB,Back Street,Hawkesbury Upton,Post Office,,-2.3183334,51.581787,Back Street Hawkesbury Upton Badminton GL9 1BB,South Gloucestershire 024E,South Gloucestershire 024,46.1207296097555,51400.0
node/7717573907,Badminton,,GL91DG,High Street,,Post Office,Drewetts Stores,-2.284759,51.5427785,High Street  Badminton GL9 1DG,South Gloucestershire 024F,South Gloucestershire 024,35.1097204718115,51400.0
node/11927791169,Bagillt,,CH66ED,High Street,,Post Office,,-3.1725517,53.269745,High Street  Bagillt CH6 6ED,Flintshire 003B,Flintshire 003,346.69030337492,35800.0
node/11927791170,Bagillt,,CH66JB,Bagillt Road,,Post Office,,-3.1777896,53.2727704,Bagillt Road  Bagillt CH6 6JB,Flintshire 003B,Flintshire 003,346.69030337492,35800.0
node/1042092519,Bakewell,,DE451QA,,,,,-1.7061279,53.2246427,Bakewell DE45 1QA,Derbyshire Dales 002A,Derbyshire Dales 002,66.9612174766814,46800.0
node/6759562225,Bakewell,,DE451RZ,School Lane,Baslow,Post Office,Spar,-1.6186266,53.2491915,School Lane Baslow Bakewell DE45 1RZ,Derbyshire Dales 002C,Derbyshire Dales 002,29.9688667378029,46800.0
node/11278989210,Bakewell,,DE451ES,Granby Road,,Post Office,,-1.6742188,53.2122813,Granby Road  Bakewell DE45 1ES,Derbyshire Dales 002A,Derbyshire Dales 002,66.9612174766814,46800.0
node/2546757462,Bampton,,OX182JH,Market Square,,Post Office,,-1.5456102,51.7265428,Market Square  Bampton OX18 2JH,West Oxfordshire 015A,West Oxfordshire 015,172.899344802482,53800.0
node/1042093008,Banbury,,OX150SA,Market Place,Deddington,,coop,-1.3209606,51.9813243,Market Place Deddington Banbury OX15 0SA,Cherwell 010A,Cherwell 010,132.869726471951,61400.0
node/11267284801,Banbury,,OX155NQ,,,Post Office,,-1.4829746,51.9957317,Banbury OX15 5NQ,Cherwell 009B,Cherwell 009,1284.07172147624,51700.0
node/775130429,Banstead,98,SM72NN,High Street,,,,-0.1995371,51.3229514,98 High Street  Banstead SM7 2NN,Reigate and Banstead 002B,Reigate and Banstead 002,3441.38076194485,58800.0
node/775131002,Banstead,17,SM73NN,Woodmansterne Street,Woodmansterne,Post Office,,-0.1705407,51.3241809,17 Woodmansterne Street Woodmansterne Banstead SM7 3NN,Reigate and Banstead 004B,Reigate and Banstead 004,1543.88549778993,67100.0
node/775131773,Banstead,31,SM71PB,Nork Way,,Post Office,Post Office Ltd,-0.2151208,51.3272417,31 Nork Way  Banstead SM7 1PB,Reigate and Banstead 001B,Reigate and Banstead 001,1640.31819554929,69900.0
node/5432451005,Barbon,,LA62LL,,,,,-2.5722314,54.2352966,Barbon LA6 2LL,South Lakeland 009B,South Lakeland 009,31.0564276622825,44200.0
node/11886300232,Barford St Michael,,OX150RH,Lower Street,,Post Office,,-1.3694045,51.9911247,Lower Street  Barford St Michael OX15 0RH,Cherwell 010B,Cherwell 010,95.7336108220603,61400.0
node/1037979188,Bargod/Bargoed,,CF818XN,Heol Caerdydd/Cardiff Road,,Post Office,,-3.2299728,51.6874525,Heol Caerdydd/Cardiff Road  Bargod/Bargoed CF81 8XN,Caerphilly 004B,Caerphilly 004,3965.09408235614,32700.0
node/12551164436,Bargoed,1,CF819LG,The Grove,,,,-3.2971325,51.7406684,1 The Grove  Bargoed CF81 9LG,Caerphilly 002B,Caerphilly 002,233.049175151945,31700.0
node/12281993681,Bargoed,12,CF819PD,The Precinct,,,,-3.2806082,51.7470478,12 The Precinct  Bargoed CF81 9PD,Caerphilly 001D,Caerphilly 001,749.629507656841,31700.0
node/1037979160,Bargoed,41,CF818UE,Mcdonnell Road,,,,-3.2353037,51.6895349,41 Mcdonnell Road  Bargoed CF81 8UE,Caerphilly 004C,Caerphilly 004,6102.96746514122,32700.0
node/1617086921,Barham,,CT46NX,Valley Road,,Post Office,,1.1570047,51.2041943,Valley Road  Barham CT4 6NX,Canterbury 018B,Canterbury 018,164.150024354603,51000.0
node/9842836849,Barking,20,IG118UW,Faircross Parade,,Post Office,,0.0943698,51.5455752,20 Faircross Parade  Barking IG11 8UW,Barking and Dagenham 011D,Barking and Dagenham 011,5273.09851965288,56100.0
node/670703194,Barking,1,IG110NY,Farr Avenue,,Post Office,,0.1041982,51.5286096,1 Farr Avenue  Barking IG11 0NY,Barking and Dagenham 022B,Barking and Dagenham 022,6130.02042205582,46100.0
node/9875808328,Barnetby,47,DN386HF,Kings Road,,Post Office,,-0.4096175,53.5787372,47 Kings Road  Barnetby DN38 6HF,North Lincolnshire 004A,North Lincolnshire 004,115.044645869413,39000.0
node/11142554070,Barnoldswick,,BB186UN,,,Post Office,,-2.144923,53.9158154,Barnoldswick BB18 6UN,Pendle 003B,Pendle 003,384.135313447283,39300.0
node/1037979154,Barnsley,6A,S720DB,Rotherham Road,,Post Office,,-1.3487383,53.5525573,6A Rotherham Road  Barnsley S72 0DB,Barnsley 020G,Barnsley 020,303.900454654223,32800.0
node/2293898289,Barnsley,16,S755EF,Ballfield Lane,,Post Office,Go Local Extra,-1.548141,53.5829691,16 Ballfield Lane  Barnsley S75 5EF,Barnsley 005C,Barnsley 005,279.144550772926,38300.0
node/2238113063,Barnsley,2,S739AA,Garden Street,,,,-1.3755353,53.5338373,2 Garden Street  Barnsley S73 9AA,Barnsley 020E,Barnsley 020,5459.29798356982,32800.0
node/1072797554,Barnsley,18,S740JY,Wentworth Road,,Post Office,,-1.4274759,53.5060282,18 Wentworth Road  Barnsley S74 0JY,Barnsley 029E,Barnsley 029,469.731881022203,35100.0
node/446296926,Barnsley,,S754LX,The Cross,,,,-1.5652062,53.5434624,The Cross  Barnsley S75 4LX,Barnsley 016B,Barnsley 016,496.246615801132,54400.0
node/31418134,Barnsley,47-49,S729AH,High Street,,Post Office,Village Stores,-1.3908236,53.6073801,47-49 High Street  Barnsley S72 9AH,Wakefield 040C,Wakefield 040,380.422077232057,34400.0
node/1313266306,Barnsley,1,S754HL,Church Street,,Post Office,,-1.5713228,53.5688089,1 Church Street  Barnsley S75 4HL,Barnsley 016A,Barnsley 016,69.9065562479323,54400.0
node/203227021,Barnsley,301,S713LR,Wakefield Road,,,,-1.4798771,53.5795432,301 Wakefield Road  Barnsley S71 3LR,Barnsley 007B,Barnsley 007,4226.19047619047,27700.0
node/203226764,Barnsley,4,S701AA,Pitt Street,,,,-1.4825174,53.5518924,4 Pitt Street  Barnsley S70 1AA,Barnsley 013B,Barnsley 013,3920.82543693409,34800.0
node/6694861909,Barnsley,,S753AH,,,Post Office,,-1.494465,53.5012667,Barnsley S75 3AH,Barnsley 028E,Barnsley 028,246.715293208385,36700.0
node/7123365287,Barnsley,63,S730TW,Knollbeck Lane,,,,-1.3795439,53.5122394,63 Knollbeck Lane  Barnsley S73 0TW,Rotherham 001B,Rotherham 001,3221.62344223644,38000.0
node/7123046440,Barnsley,8,S729JR,Church Street,Brierley,,,-1.3854499,53.5957605,8 Church Street Brierley Barnsley S72 9JR,Barnsley 006B,Barnsley 006,774.165393846825,32400.0
node/7122968828,Barnsley,498,S703PH,Doncaster Road,,Post Office,,-1.4422777,53.5459592,498 Doncaster Road  Barnsley S70 3PH,Barnsley 015C,Barnsley 015,1380.65269577629,37500.0
node/7101648963,Barnsley,16,S740NE,Hoyland Road,,,,-1.4643231,53.4973214,16 Hoyland Road  Barnsley S74 0NE,Barnsley 028A,Barnsley 028,5097.57738896366,36700.0
node/7122095939,Barnsley,66,S752EF,Pogmoor Road,,Post Office,,-1.5019912,53.5563896,66 Pogmoor Road  Barnsley S75 2EF,Barnsley 012G,Barnsley 012,3139.25278990781,41600.0
node/7123065646,Barnsley,246,S728SS,Barnsley Road,,Post Office,,-1.4181481,53.5770386,246 Barnsley Road  Barnsley S72 8SS,Barnsley 008B,Barnsley 008,3256.8328812852,33100.0
node/7122969832,Barnsley,92,S703AJ,Birk Avenue,,Post Office,,-1.4488543,53.5409457,92 Birk Avenue  Barnsley S70 3AJ,Barnsley 018A,Barnsley 018,2474.34252726106,29000.0
node/7122083638,Barnsley,138,S752RB,Redbrook Road,,Post Office,Londis,-1.5053166,53.5606839,138 Redbrook Road  Barnsley S75 2RB,Barnsley 012C,Barnsley 012,1404.08270086364,41600.0
node/7123011357,Barnsley,288,S755BA,Sackup Lane,,Post Office,,-1.5116348,53.5941927,288 Sackup Lane  Barnsley S75 5BA,Barnsley 004E,Barnsley 004,2299.07317747959,38800.0
node/7119771067,Barnsley,81,S751AA,Huddersfield Road,,Post Office,,-1.4948508,53.5639659,81 Huddersfield Road  Barnsley S75 1AA,Barnsley 010H,Barnsley 010,2230.68552774755,36900.0
node/9890712558,Barnsley,22-24,S749AB,High Street,,Post Office,,-1.4384989,53.5007952,22-24 High Street  Barnsley S74 9AB,Barnsley 030C,Barnsley 030,4549.49614700652,32300.0
node/3822743774,Barnsley,,S713SZ,Haddon Road,,Post Office,RSD Stores,-1.4629655,53.5763243,Haddon Road  Barnsley S71 3SZ,Barnsley 007E,Barnsley 007,1919.83353411455,27700.0
node/7123032609,Barnsley,2A,S714RA,High Street,,Post Office,,-1.4548525,53.5982029,2A High Street  Barnsley S71 4RA,Barnsley 001A,Barnsley 001,4065.32086000328,36100.0
node/7122127733,Barnsley,26,S751JT,Barugh Green Road,,,,-1.5316296,53.5678582,26 Barugh Green Road  Barnsley S75 1JT,Barnsley 012D,Barnsley 012,1775.83322609702,41600.0
node/10608666535,Barnstaple,,EX311HX,,,Post Office,WHSmith,-4.0609074,51.0805412,Barnstaple EX31 1HX,North Devon 008A,North Devon 008,4402.78122671964,34800.0
node/820247733,Barnstaple,,EX328EE,,,Post Office,,-4.0428789,51.0769543,Barnstaple EX32 8EE,North Devon 010B,North Devon 010,6401.94489465154,41500.0
node/1123026043,Barnstaple,,EX314TG,,,Post Office,,-3.935759,51.123703,Barnstaple EX31 4TG,North Devon 006A,North Devon 006,26.0166746641074,46500.0
node/471949766,Barnstaple,,EX320PW,,,Post Office,,-3.9688321,51.0526321,Barnstaple EX32 0PW,North Devon 012D,North Devon 012,119.128393267804,44300.0
node/1128156994,Barnstaple,,EX312BZ,,,Post Office,,-4.07654,51.07248,Barnstaple EX31 2BZ,North Devon 009B,North Devon 009,2671.20765832106,40300.0
node/7501408855,Barrow-in-Furness,5-7,LA141LE,Dalton Road,,Post Office,,-3.2259149,54.1111766,5-7 Dalton Road  Barrow-in-Furness LA14 1LE,Barrow-in-Furness 008A,Barrow-in-Furness 008,5507.5845974329,26800.0
node/1037979174,Barrow-in-Furness,8,LA143DP,Mikasa Street,,Post Office,,-3.2486512,54.1032387,8 Mikasa Street  Barrow-in-Furness LA14 3DP,Barrow-in-Furness 010D,Barrow-in-Furness 010,9337.95227097767,33400.0
node/9797195605,Barrow-in-Furness,,LA144BP,Millstone Avenue,,Post Office,,-3.2326833,54.1376393,Millstone Avenue  Barrow-in-Furness LA14 4BP,Barrow-in-Furness 004C,Barrow-in-Furness 004,446.046140667001,28800.0
node/5543090112,Barrow-in-Furness,,LA144PR,Ennerdale Drive,,,,-3.2123296,54.1373622,Ennerdale Drive  Barrow-in-Furness LA14 4PR,Barrow-in-Furness 003D,Barrow-in-Furness 003,2143.28991214783,48400.0
node/1642839467,Barrow-upon-Humber,3,DN197BZ,"Green Lane, Cross Hill",,Post Office,,-0.3803221,53.6750855,"3 Green Lane, Cross Hill  Barrow-upon-Humber DN19 7BZ",North Lincolnshire 002D,North Lincolnshire 002,613.214185195609,42200.0
node/4795512357,Bartley,,SO402LL,,,Post Office,Fourways Stores,-1.5655288,50.9144867,Bartley SO40 2LL,New Forest 006B,New Forest 006,243.563837171636,53200.0
node/9875808329,Barton-upon-Humber,32,DN185HA,Burgate,,Post Office,,-0.43834,53.68469,32 Burgate  Barton-upon-Humber DN18 5HA,North Lincolnshire 001B,North Lincolnshire 001,2965.26912965269,36500.0
node/1037979164,Barton-upon-Humber,,DN186JA,Sluice Road,,Post Office,,-0.5065046,53.6765237,Sluice Road  Barton-upon-Humber DN18 6JA,North Lincolnshire 011B,North Lincolnshire 011,41.8210386750876,37700.0
node/4360735991,Baschurch,,SY42AY,Shrewsbury Road,,Post Office,,-2.8531757,52.7914407,Shrewsbury Road  Baschurch SY4 2AY,Shropshire 010A,Shropshire 010,158.801314967261,47800.0
node/509315952,Basildon,134,SS132AJ,Rectory Road,,Post Office,,0.5100371,51.5729529,134 Rectory Road  Basildon SS13 2AJ,Basildon 018B,Basildon 018,5366.502088872,40100.0
node/12330748669,Basildon,29-31,SS141BA,Town Square,,Post Office,WHSmith,0.4588892,51.5707668,29-31 Town Square  Basildon SS14 1BA,Basildon 015C,Basildon 015,4381.69425511197,39300.0
node/289766301,Basingstoke,,RG215RG,,,Post Office,Nisa Today's,-1.0794642,51.2773624,Basingstoke RG21 5RG,Basingstoke and Deane 009A,Basingstoke and Deane 009,7355.89438452956,52100.0
node/304429924,Basingstoke,25,RG226UJ,Burnaby Close,,,,-1.1242318,51.2586561,25 Burnaby Close  Basingstoke RG22 6UJ,Basingstoke and Deane 013A,Basingstoke and Deane 013,7877.61852260198,56300.0
node/317846715,Basingstoke,57-58,RG224AQ,Broadmere Road,Beggarwood,Post Office,,-1.1422744,51.2296008,57-58 Broadmere Road Beggarwood Basingstoke RG22 4AQ,Basingstoke and Deane 021E,Basingstoke and Deane 021,6546.81381274474,76500.0
node/368610197,Bath,6-7,BA11RT,Union Street,,Post Office,,-2.3606854,51.3819127,6-7 Union Street  Bath BA1 1RT,Bath and North East Somerset 007A,Bath and North East Somerset 007,4977.44759883258,54000.0
node/5763102891,Bath,,BA27AY,,,,,-2.3298145,51.3799711,Bath BA2 7AY,Bath and North East Somerset 012A,Bath and North East Somerset 012,1566.24765207339,50400.0
node/9898327397,Bath,21-23,BA26UL,Holcombe Lane,Bathampton,Post Office,,-2.3214479,51.3933145,21-23 Holcombe Lane Bathampton Bath BA2 6UL,Bath and North East Somerset 010E,Bath and North East Somerset 010,295.159386068477,55900.0
node/1037979171,Batley,,WF175DQ,,,Post Office,,-1.6346532,53.7144357,Batley WF17 5DQ,Kirklees 010B,Kirklees 010,2752.05761316872,25100.0
node/1037979159,Batley,16,WF177PZ,Oxford Street,,Post Office,,-1.6390004,53.708147,16 Oxford Street  Batley WF17 7PZ,Kirklees 013B,Kirklees 013,10013.633265167,32600.0
node/2018607456,Batley,,WF179EY,,,Post Office,,-1.6609462,53.732243,Batley WF17 9EY,Kirklees 002A,Kirklees 002,1830.03015941404,36200.0
node/4855623758,Battle,22,TN330XB,Market Square,,Post Office,,0.4820724,50.9178945,22 Market Square  Battle TN33 0XB,Rother 006A,Rother 006,380.296422016538,44300.0
node/6523202140,Baycliff,,LA129RJ,Coast Road,,,,-3.0913509,54.1411164,Coast Road  Baycliff LA12 9RJ,South Lakeland 014B,South Lakeland 014,97.9285641874767,46300.0
node/1037979173,Beckenham,98,BR36QH,Wickham Road,Park Langley,Post Office,,-0.0185119,51.3996631,98 Wickham Road Park Langley Beckenham BR3 6QH,Bromley 012D,Bromley 012,2145.25302610471,68600.0
node/1037979152,Beckenham,271-273,BR33PS,Croydon Road,,Post Office,,-0.0364232,51.4029496,271-273 Croydon Road  Beckenham BR3 3PS,Bromley 041C,Bromley 041,4551.6304347826,56000.0
node/11065867406,Beckenham,172,BR31EW,High Street,,,,-0.0278042,51.4074766,172 High Street  Beckenham BR3 1EW,Bromley 006D,Bromley 006,6509.94575045208,63800.0
node/3212296559,Bedale,6,DL81EQ,Market Place,,,,-1.5931522,54.2891161,6 Market Place  Bedale DL8 1EQ,Hambleton 006B,Hambleton 006,276.497695852534,44600.0
node/11129826681,Bedford,82,MK402NZ,Kimbolton Road,,Post Office,Budgens,-0.4594745,52.1434427,82 Kimbolton Road  Bedford MK40 2NZ,Bedford 009C,Bedford 009,3540.75597840061,49300.0
node/4163253,Bedford,103,MK417QF,Brickhill Drive,,,,-0.4651271,52.1542784,103 Brickhill Drive  Bedford MK41 7QF,Bedford 005E,Bedford 005,3435.26721920548,49900.0
node/130011934,Bedford,37,MK443PP,Bedford Road,Willington,Post Office,,-0.3756816,52.133164,37 Bedford Road Willington Bedford MK44 3PP,Bedford 004C,Bedford 004,103.14853910913,54600.0
node/11503743075,Bedford,6,MK401LX,Greenhill Street,,,Morrisons Daily,-0.470977,52.1379111,6 Greenhill Street  Bedford MK40 1LX,Bedford 012F,Bedford 012,7096.89629068887,47300.0
node/980735669,Bedford,29,MK454LL,Bedford Road,Barton Le Clay,,,-0.4274264,51.9663852,29 Bedford Road Barton Le Clay Bedford MK45 4LL,Central Bedfordshire 018A,Central Bedfordshire 018,4439.8872084081,54800.0
node/288256783,Bedford,432,MK419NU,Goldington Road,,Post Office,Premier,-0.4339099,52.1423758,432 Goldington Road  Bedford MK41 9NU,Bedford 011B,Bedford 011,4962.16646754281,55300.0
node/1149338397,Bedford,77-81,MK404LJ,Iddesleigh Road,,,,-0.485138,52.1337501,77-81 Iddesleigh Road  Bedford MK40 4LJ,Bedford 013B,Bedford 013,14001.1350737797,43600.0
node/979617143,Bedford,5,MK455JG,High Street,Westoning,,,-0.4968668,51.9815948,5 High Street Westoning Bedford MK45 5JG,Central Bedfordshire 017E,Central Bedfordshire 017,196.625835380624,58300.0
node/3720531952,Bedford,14-16,MK418HF,Library Walk,,,,-0.4416107,52.1545622,14-16 Library Walk  Bedford MK41 8HF,Bedford 006D,Bedford 006,2880.57742782152,52700.0
node/4325170812,Bedlington,20,NE225UB,Front Street West,,Post Office,,-1.5990256,55.1315008,20 Front Street West  Bedlington NE22 5UB,Northumberland 021A,Northumberland 021,540.301989093087,42400.0
node/4330780593,Bedlington,37,NE225PP,Station Road,,,,-1.5727914,55.1385705,37 Station Road  Bedlington NE22 5PP,Northumberland 020B,Northumberland 020,1258.53790491648,33000.0
node/10141301688,Bedwas,41,CF838EA,Church Street,,Post Office,,-3.199362,51.5915545,41 Church Street  Bedwas CF83 8EA,Caerphilly 020C,Caerphilly 020,1670.21482485,36700.0
node/3261539790,Belford,5,NE707QE,West Street,,,,-1.8297085,55.5980825,5 West Street  Belford NE70 7QE,Northumberland 003A,Northumberland 003,24.80362730698,36500.0
node/1468440700,Belper,53-55,DE560NR,Chapel Street,Kilburn,,,-1.4301814,53.0085982,53-55 Chapel Street Kilburn Belper DE56 0NR,Amber Valley 015C,Amber Valley 015,3050.04135649296,40200.0
node/749152854,Belper,,DE561UN,Strutt Street,,Post Office,,-1.4814613,53.0225863,Strutt Street  Belper DE56 1UN,Amber Valley 010A,Amber Valley 010,3014.57194899817,38700.0
node/2268804255,Belper,80,DE562JQ,Ripley Road,,Post Office,,-1.4602885,53.0657909,80 Ripley Road  Belper DE56 2JQ,Amber Valley 006A,Amber Valley 006,211.643150761026,38500.0
node/571290392,Belper,,DE564EH,Town Street,,,,-1.4880119,52.9866058,Town Street  Belper DE56 4EH,Amber Valley 016B,Amber Valley 016,430.939516340555,53600.0
node/1547559773,Bembridge,,PO355UE,Lane End Road,,Post Office,Welcome,-1.0805734,50.6867729,Lane End Road  Bembridge PO35 5UE,Isle of Wight 010B,Isle of Wight 010,405.556118827942,40600.0
node/11882412789,Benson,,OX106LZ,Sunnyside,,Post Office,,-1.1089492,51.6231425,Sunnyside  Benson OX10 6LZ,South Oxfordshire 011A,South Oxfordshire 011,956.960913482652,68900.0
node/1070533190,"Bentley, Farnham",,GU105HY,Main Road,,Post Office,Post Office Ltd,-0.8773352,51.1898041,"Main Road  Bentley, Farnham GU10 5HY",East Hampshire 001A,East Hampshire 001,123.687801451018,67900.0
node/11839344310,Berinsfield,29,OX107ND,Fane Drive,,Post Office,,-1.1775106,51.663494,29 Fane Drive  Berinsfield OX10 7ND,South Oxfordshire 006B,South Oxfordshire 006,817.230703533682,54300.0
node/25032517,Berkeley,,GL139NR,Bay Lane Villas,Newtown,Post Office,Mace,-2.4718754,51.7140674,Bay Lane Villas Newtown Berkeley GL13 9NR,Stroud 012A,Stroud 012,199.837069220894,50800.0
node/1037979167,Berkhamsted,,HP41PA,,Little Gaddesden,Post Office,,-0.5622775,51.8134404,Little Gaddesden Berkhamsted HP4 1PA,Dacorum 006B,Dacorum 006,98.267527610176,55400.0
node/8928141267,Berwick-upon-Tweed,,TD152SQ,Green Lane,Holy Island,,1st Class Food,-1.800147,55.6716905,Green Lane Holy Island Berwick-upon-Tweed TD15 2SQ,Northumberland 002C,Northumberland 002,13.0920628460545,39900.0
node/393393002,Betchworth,,RH37DE,Old Reigate Road,,Post Office,,-0.2709381,51.2402282,Old Reigate Road  Betchworth RH3 7DE,Mole Valley 008D,Mole Valley 008,107.173209292669,51200.0
node/11279011593,Beverley,"39,41",HU179AA,Toll Gavel,,Post Office,WHSmith,-0.4297797,53.8419732,"39,41 Toll Gavel  Beverley HU17 9AA",East Riding of Yorkshire 019E,East Riding of Yorkshire 019,3610.92604930046,41300.0
node/4935798921,Beverley,6,HU175LF,West Street,Leven,Post Office,,-0.3187811,53.8926889,6 West Street Leven Beverley HU17 5LF,East Riding of Yorkshire 014B,East Riding of Yorkshire 014,143.226919758412,47300.0
node/115579313,Beverley,19,HU178RX,East Road,Walkington,Post Office,Costcutter,-0.4858473,53.82065,19 East Road Walkington Beverley HU17 8RX,East Riding of Yorkshire 020A,East Riding of Yorkshire 020,66.5478037372357,54400.0
node/291002528,Beverley,,HU179RZ,Main Street,Tickton,Post Office,,-0.3828083,53.8624225,Main Street Tickton Beverley HU17 9RZ,East Riding of Yorkshire 014A,East Riding of Yorkshire 014,71.8301867326936,47300.0
node/3259553799,Beverley,59,HU177HZ,Woodhall Way,,Post Office,,-0.43816,53.8526948,59 Woodhall Way  Beverley HU17 7HZ,East Riding of Yorkshire 016C,East Riding of Yorkshire 016,4519.82378854625,55300.0
node/1037979166,Beverley,12,HU178QP,Finkle Street,Bishop Burton,,,-0.5025389,53.8442713,12 Finkle Street Bishop Burton Beverley HU17 8QP,East Riding of Yorkshire 020A,East Riding of Yorkshire 020,66.5478037372357,54400.0
node/5654257374,Bewbush,7-8,RH118XW,Dorsten Square,,,Martin's,-0.2222332,51.1036526,7-8 Dorsten Square  Bewbush RH11 8XW,Crawley 010B,Crawley 010,5713.78586424072,52600.0
node/775834573,Bewdley,,DY121XA,,,,,-2.3457868,52.4190737,Bewdley DY12 1XA,Wyre Forest 005A,Wyre Forest 005,104.191480914298,40500.0
node/6984545624,Bexhill-on-Sea,49,TN395DZ,Ninfield Road,,Post Office,,0.4710859,50.8560037,49 Ninfield Road  Bexhill-on-Sea TN39 5DZ,Rother 007D,Rother 007,5148.95860796203,34400.0
node/9230656152,Bexhill-on-Sea,,TN401AA,Devonshire Square,,Post Office,Post Office,0.4741885,50.8405751,Devonshire Square  Bexhill-on-Sea TN40 1AA,Rother 011C,Rother 011,5971.55049786628,32100.0
node/11899447860,Bexhill-on-Sea,1,TN394DG,Windmill Drive,,Post Office,,0.4626368,50.8527061,1 Windmill Drive  Bexhill-on-Sea TN39 4DG,Rother 010E,Rother 010,2851.2084592145,37800.0
node/7231537917,Bexley,26,DA51AD,Bexley High Street,,Post Office,,0.1477884,51.441346,26 Bexley High Street  Bexley DA5 1AD,Bexley 023C,Bexley 023,1934.44276348966,61900.0
node/7195090661,Bexleyheath,323-325,DA68DT,Broadway,,Post Office,,0.1320624,51.4583005,323-325 Broadway  Bexleyheath DA6 8DT,Bexley 015A,Bexley 015,4357.51648851489,57100.0
node/7195087275,Bexleyheath,14-16,DA74QW,Pickford Lane,,Post Office,,0.1329705,51.4643367,14-16 Pickford Lane  Bexleyheath DA7 4QW,Bexley 009A,Bexley 009,5100.19392372333,59100.0
node/7195104917,Bexleyheath,145-147,DA75AE,Long Lane,,Post Office,,0.1459809,51.4656923,145-147 Long Lane  Bexleyheath DA7 5AE,Bexley 011D,Bexley 011,5653.65025466893,57800.0
node/26885199,Bicester,9,OX264TZ,Bassett Avenue,,Post Office,,-1.1470313,51.9060708,9 Bassett Avenue  Bicester OX26 4TZ,Cherwell 013B,Cherwell 013,3703.51884202645,62200.0
node/11497625863,Bicknacre,18,CM34EU,Monks Mead,,,,0.5850085,51.6949189,18 Monks Mead  Bicknacre CM3 4EU,Chelmsford 016A,Chelmsford 016,838.076107577279,54100.0
node/10212752266,"Biddenden, Ashford",2,TN278AH,High Street,,Post Office,Post Office Ltd,0.643533,51.1150904,"2 High Street  Biddenden, Ashford TN27 8AH",Ashford 011B,Ashford 011,733.228511530398,46000.0
node/5799506531,Biddulph,8-10,ST86AP,High Street,,Post Office,,-2.17469,53.1178083,8-10 High Street  Biddulph ST8 6AP,Staffordshire Moorlands 003E,Staffordshire Moorlands 003,3282.64289459884,37500.0
node/10940721299,Bideford,,EX391QS,,,Post Office,Johns,-4.1910877,51.0524697,Bideford EX39 1QS,Torridge 001A,Torridge 001,3610.707011929,37400.0
node/1123026269,Bideford,,EX391AR,The Square,,Post Office,Post Office,-4.213132,51.0403158,The Square  Bideford EX39 1AR,Torridge 001C,Torridge 001,5474.10649161196,37400.0
node/1123025893,Bideford,,EX395QS,,,Post Office,,-4.376416,50.964487,Bideford EX39 5QS,Torridge 005A,Torridge 005,39.8262806653001,42000.0
node/4382766814,Bideford,,EX392EX,,,Post Office,Post Office,-4.2042214,51.0201539,Bideford EX39 2EX,Torridge 003C,Torridge 003,3161.42131979695,37600.0
node/434345037,Bideford,,EX393BH,,,Post Office,,-4.2125174,51.0159491,Bideford EX39 3BH,Torridge 004E,Torridge 004,6166.4712778429,38400.0
node/1123026234,Bideford,,EX394HA,Barton Tors,,Post Office,,-4.1939,51.013091,Barton Tors  Bideford EX39 4HA,Torridge 004A,Torridge 004,1549.55758792475,38400.0
node/1123025883,Bideford,,EX395DP,,,Post Office,,-4.3546377,50.981846,Bideford EX39 5DP,Torridge 005A,Torridge 005,39.8262806653001,42000.0
node/1123026431,Bideford,,EX395AP,,,Post Office,Post Office Counters,-4.2486192,51.0153395,Bideford EX39 5AP,Torridge 005C,Torridge 005,43.0645223272615,42000.0
node/1123026503,Bideford,,EX394HY,,,Post Office,,-4.180452,51.050981,Bideford EX39 4HY,North Devon 011D,North Devon 011,49.114436637365,43500.0
node/902635460,Biggleswade,,SG188AY,Bonds Lane,,Post Office,,-0.2640952,52.0853705,Bonds Lane  Biggleswade SG18 8AY,Central Bedfordshire 005C,Central Bedfordshire 005,2837.71667662881,48300.0
node/10940049792,Billericay,93-95,CM129AS,High Street,,Post Office,One Stop,0.4169454,51.6251863,93-95 High Street  Billericay CM12 9AS,Basildon 003B,Basildon 003,5013.00202253683,56800.0
node/1037989990,Billingham,30,TS231AB,Station Road,,Post Office,,-1.2934004,54.5966076,30 Station Road  Billingham TS23 1AB,Stockton-on-Tees 004C,Stockton-on-Tees 004,4774.11477411477,35300.0
node/5832247833,Billingham,,TS232LF,Queensway,,Post Office,,-1.2920669,54.6073375,Queensway  Billingham TS23 2LF,Stockton-on-Tees 002E,Stockton-on-Tees 002,3341.85177904462,33800.0
node/26686945,Billingshurst,14,RH149PB,Jengers Mead,,Post Office,,-0.4513074,51.0245823,14 Jengers Mead  Billingshurst RH14 9PB,Horsham 010D,Horsham 010,316.676996480067,52300.0
node/565766102,Billingshurst,,RH140PX,Loxwood Road,,,,-0.5649734,51.0687186,Loxwood Road  Billingshurst RH14 0PX,Chichester 002B,Chichester 002,80.8586067066508,55600.0
node/54572117,Billingshurst,,RH140BH,Petworth Road,,,,-0.5059071,51.022952,Petworth Road  Billingshurst RH14 0BH,Chichester 002D,Chichester 002,135.284635079179,55600.0
node/309677760,Billingshurst,,RH140SB,Guildford Road,,,,-0.519463,51.0734527,Guildford Road  Billingshurst RH14 0SB,Chichester 002A,Chichester 002,107.127170664295,55600.0
node/5566891716,Bilston,143,WV140LH,Highfields Road,,,,-2.07141,52.55801,143 Highfields Road  Bilston WV14 0LH,Wolverhampton 033A,Wolverhampton 033,2724.53755293068,35400.0
node/387642696,Binfield,,RG424JF,Terrace Road South,,,,-0.7906137,51.4307571,Terrace Road South  Binfield RG42 4JF,Bracknell Forest 002B,Bracknell Forest 002,1278.42833639794,75800.0
node/354691445,Bingley,1-3,BD161RP,The Parade,Cottingley,,,-1.829527,53.8295379,1-3 The Parade Cottingley Bingley BD16 1RP,Bradford 022E,Bradford 022,4068.89406889406,45400.0
node/11930639978,Bingley,29-31,BD164PR,Ferncliffe Road,,Post Office,,-1.8272249,53.8477481,29-31 Ferncliffe Road  Bingley BD16 4PR,Bradford 015D,Bradford 015,5792.64426125554,40300.0
node/305533953,Bingley,131,BD162HT,Main Street,,Post Office,,-1.8376665,53.8476369,131 Main Street  Bingley BD16 2HT,Bradford 015E,Bradford 015,4001.58478605388,40300.0
node/7095441305,Birchington,54-56,CT79RA,Station Road,,Post Office,Post Office,1.3046045,51.3753583,54-56 Station Road  Birchington CT7 9RA,Thanet 008D,Thanet 008,3102.50319751507,37400.0
node/2428358324,Birkenhead,,CH422AJ,King Street,,Post Office,McColl's,-3.0049555,53.3697117,King Street  Birkenhead CH42 2AJ,Wirral 031E,Wirral 031,6728.16728167281,33500.0
node/11927780668,Birkenhead,43,CH495LZ,Fleetcroft Road,,Post Office,,-3.0892058,53.3708183,43 Fleetcroft Road  Birkenhead CH49 5LZ,Wirral 025B,Wirral 025,1757.55734467567,29100.0
node/5472660175,Birmingham,316-320,B280RB,Baldwins Lane,,Post Office,Londis,-1.8462482,52.4141566,316-320 Baldwins Lane  Birmingham B28 0RB,Birmingham 132D,Birmingham 132,5706.52173913043,47900.0
node/5473156500,Birmingham,,B276LL,Yardley Road,,Post Office,Costcutter,-1.8185609,52.4519586,Yardley Road  Birmingham B27 6LL,Birmingham 089D,Birmingham 089,6093.64081062194,40000.0
node/269957920,Birmingham,290,B57JP,Gooch Street,,Post Office,,-1.892019,52.4658763,290 Gooch Street  Birmingham B5 7JP,Birmingham 071A,Birmingham 071,7147.57190004714,27300.0
node/273434510,Birmingham,302,B339SB,Kitts Green Road,,,,-1.7800053,52.4829878,302 Kitts Green Road  Birmingham B33 9SB,Birmingham 057C,Birmingham 057,3544.87760652765,32000.0
node/848861541,Birmingham,10,B144BJ,School Road,,Post Office,,-1.8714106,52.413845,10 School Road  Birmingham B14 4BJ,Birmingham 122A,Birmingham 122,6488.93725063474,38500.0
node/858031409,Birmingham,292,B109HH,Hob Moor Road,,,,-1.8299194,52.4711529,292 Hob Moor Road  Birmingham B10 9HH,Birmingham 066D,Birmingham 066,4405.80895888729,32800.0
node/3594222435,Birmingham,306,B130QS,Haunch Lane,,Post Office,,-1.8787026,52.4212528,306 Haunch Lane  Birmingham B13 0QS,Birmingham 111B,Birmingham 111,3314.27550473467,37400.0
node/5472645939,Birmingham,45,B323QU,Woodgate Lane,,,,-2.0122193,52.4435023,45 Woodgate Lane  Birmingham B32 3QU,Birmingham 094C,Birmingham 094,2324.5684787869,35600.0
node/314700847,Birmingham,226,B301RT,Heath Road,,,,-1.9508812,52.4190795,226 Heath Road  Birmingham B30 1RT,Birmingham 120D,Birmingham 120,3266.44148619113,47300.0
node/312727939,Birmingham,27,B313JW,Alvechurch Road,,,,-1.9610432,52.3979959,27 Alvechurch Road  Birmingham B31 3JW,Birmingham 131D,Birmingham 131,5643.93939393939,39900.0
node/309687713,Birmingham,46,B324EY,Caynham Road,Bartley Green,,,-2.0051945,52.433608,46 Caynham Road Bartley Green Birmingham B32 4EY,Birmingham 102E,Birmingham 102,4471.35262847017,35300.0
node/280144072,Birmingham,7,B145JD,Stotfold Road,,Post Office,,-1.8868596,52.4062377,7 Stotfold Road  Birmingham B14 5JD,Birmingham 122D,Birmingham 122,5665.38461538461,38500.0
node/300224785,Birmingham,64,B294JT,Swarthmore Road,,Post Office,,-1.9597896,52.4298148,64 Swarthmore Road  Birmingham B29 4JT,Birmingham 109D,Birmingham 109,3464.78873239436,43800.0
node/293190175,Birmingham,177,B210BD,Holyhead Road,,,,-1.953332,52.5078409,177 Holyhead Road  Birmingham B21 0BD,Birmingham 036D,Birmingham 036,3963.42911422464,35500.0
node/5472480127,Birmingham,113,B147BW,High Street,,Post Office,,-1.8925756,52.435079,113 High Street  Birmingham B14 7BW,Birmingham 104C,Birmingham 104,5913.35740072202,55000.0
node/3574870569,Birmingham,,B192SA,Alma Street,,Post Office,,-1.896688,52.4974858,Alma Street  Birmingham B19 2SA,Birmingham 050B,Birmingham 050,7696.28099173553,29500.0
node/287600385,Birmingham,197-199,B346QU,Heath Way,,,,-1.7907342,52.4986812,197-199 Heath Way  Birmingham B34 6QU,Birmingham 045C,Birmingham 045,5063.86861313868,32900.0
node/281518101,Birmingham,107,B192TR,Lozells Road,,Post Office,,-1.9064897,52.5029712,107 Lozells Road  Birmingham B19 2TR,Birmingham 040C,Birmingham 040,8954.18326693227,30900.0
node/58963609,Birmingham,150,B448PX,Hawthorn Road,,Post Office,,-1.8820102,52.5391878,150 Hawthorn Road  Birmingham B44 8PX,Birmingham 017C,Birmingham 017,5106.3829787234,37400.0
node/3701390013,Birmingham,312,B330ND,Tile Cross Road,,,,-1.7610142,52.4818187,312 Tile Cross Road  Birmingham B33 0ND,Birmingham 057A,Birmingham 057,2405.02942750133,32000.0
node/5642041426,Birmingham,169,B321JX,Worldsend Lane,,Post Office,,-1.9914204,52.4573308,169 Worldsend Lane  Birmingham B32 1JX,Birmingham 080F,Birmingham 080,6965.57586060348,43100.0
node/458375627,Birmingham,1402,B258AE,Coventry Road,Yardley,Post Office,,-1.8183132,52.4623147,1402 Coventry Road Yardley Birmingham B25 8AE,Birmingham 078A,Birmingham 078,5128.01013941698,37700.0
node/5559518454,Birmingham,114,B295PT,Weoley Castle Road,,Post Office,,-1.969369,52.437022,114 Weoley Castle Road  Birmingham B29 5PT,Birmingham 101B,Birmingham 101,5489.84681154257,37400.0
node/5559530038,Birmingham,34-38,B311DJ,Hillwood Road,,Post Office,,-1.98365,52.43034,34-38 Hillwood Road  Birmingham B31 1DJ,Birmingham 106C,Birmingham 106,2999.24924924924,35100.0
node/5559562345,Birmingham,32,B301JA,Watford Road,,Post Office,Spar,-1.93029,52.41691,32 Watford Road  Birmingham B30 1JA,Birmingham 116C,Birmingham 116,5274.926686217,44300.0
node/257074405,Birmingham,149,B138LH,Alcester Road,,,,-1.8890306,52.4458103,149 Alcester Road  Birmingham B13 8LH,Birmingham 092B,Birmingham 092,3522.7529997736,44700.0
node/257270137,Birmingham,248,B144LJ,Prince of Wales Lane,,Post Office,,-1.8688164,52.4065011,248 Prince of Wales Lane  Birmingham B14 4LJ,Solihull 021A,Solihull 021,6169.03996325218,42900.0
node/5566112046,Birmingham,378,B322DY,Court Oak Road,,Post Office,,-1.981948,52.460417,378 Court Oak Road  Birmingham B32 2DY,Birmingham 085C,Birmingham 085,5762.31884057971,35300.0
node/5618089136,Birmingham,99,B248JR,Bromford Lane,,,,-1.8350605,52.5125114,99 Bromford Lane  Birmingham B24 8JR,Birmingham 031A,Birmingham 031,7588.28250401284,37200.0
node/29761777,Birmingham,276,B147NH,Vicarage Road,,Post Office,,-1.906442,52.4276818,276 Vicarage Road  Birmingham B14 7NH,Birmingham 107B,Birmingham 107,3012.63758662861,41200.0
node/5566126638,Birmingham,268,B202QL,Wellington Road,,Post Office,,-1.90307,52.51518,268 Wellington Road  Birmingham B20 2QL,Birmingham 033A,Birmingham 033,6342.60932417781,32700.0
node/5576999587,Birmingham,83,B236SA,High Street,,Post Office,,-1.83803,52.52513,83 High Street  Birmingham B23 6SA,Birmingham 023D,Birmingham 023,4603.1746031746,37800.0
node/5626816816,Birmingham,42A,B475PY,Hollywood Lane,Hollywood,,,-1.8727308,52.3930439,42A Hollywood Lane Hollywood Birmingham B47 5PY,Bromsgrove 004C,Bromsgrove 004,1273.93107849393,45400.0
node/264163257,Birmingham,53,B202JU,Coopers Road,,,,-1.923957,52.5214162,53 Coopers Road  Birmingham B20 2JU,Birmingham 133D,Birmingham 133,3887.89237668161,47600.0
node/5642049338,Birmingham,696,B83NU,Alum Rock Road,,Post Office,,-1.83226,52.48741,696 Alum Rock Road  Birmingham B8 3NU,Birmingham 055E,Birmingham 055,9839.33787731256,33000.0
node/5642056825,Birmingham,27-31,B235NX,Jerry's Lane,,Post Office,One Stop,-1.8502926,52.5353933,27-31 Jerry's Lane  Birmingham B23 5NX,Birmingham 020A,Birmingham 020,7148.11407543698,35200.0
node/315454661,Birmingham,12-14,B389TU,Hawkesley Square,,,,-1.9359332,52.3944431,12-14 Hawkesley Square  Birmingham B38 9TU,Birmingham 128C,Birmingham 128,3570.42957042957,33300.0
node/260772658,Birmingham,187,B95SR,Bordesley Green East,,Post Office,,-1.8242645,52.4796406,187 Bordesley Green East  Birmingham B9 5SR,Birmingham 066E,Birmingham 066,3135.90790939472,32800.0
node/5539291079,Birmingham,4-6,B369EJ,Parkfield Drive,,,,-1.777555,52.5086984,4-6 Parkfield Drive  Birmingham B36 9EJ,Solihull 001B,Solihull 001,2474.4295830055,42600.0
node/5539292436,Birmingham,262,B360JE,Chester Road,,Post Office,,-1.7642698,52.501059,262 Chester Road  Birmingham B36 0JE,Solihull 003D,Solihull 003,5004.89396411093,46300.0
node/5539293089,Birmingham,12-14,B376BA,The Parade,Kingshurst,,,-1.7504684,52.4937739,12-14 The Parade Kingshurst Birmingham B37 6BA,Solihull 004A,Solihull 004,5750.4215851602,35000.0
node/5559486787,Birmingham,15,B57QN,Hollies Croft,,Post Office,,-1.9056951,52.4577034,15 Hollies Croft  Birmingham B5 7QN,Birmingham 074A,Birmingham 074,6933.85214007782,39900.0
node/5539297571,Birmingham,Unit 11,B347AH,Ownall Road,,,,-1.7779089,52.4945319,Unit 11 Ownall Road  Birmingham B34 7AH,Birmingham 045E,Birmingham 045,7096.65144596651,32900.0
node/11282766293,Birmingham,51,B24AY,Pinfold Street,,Mail Boxes Etc.,,-1.902111,52.4792807,51 Pinfold Street  Birmingham B2 4AY,Birmingham 138A,Birmingham 138,2292.71007234279,46600.0
node/8917826718,Birmingham,,B57AH,Bristol Street,,Post Office,Costcutter,-1.8995015,52.47125,Bristol Street  Birmingham B5 7AH,Birmingham 135B,Birmingham 135,16851.8518518518,43000.0
node/258078804,Birmingham,102,B75PY,Nechells Park Road,,,,-1.8655769,52.5001139,102 Nechells Park Road  Birmingham B7 5PY,Birmingham 043A,Birmingham 043,2260.91888825865,30100.0
node/246660531,Birmingham,623,B421EH,Walsall Road,,Post Office,,-1.9194689,52.5355846,623 Walsall Road  Birmingham B42 1EH,Birmingham 024B,Birmingham 024,4172.54348848142,41600.0
node/257319756,Birmingham,7,B303QH,Lindsworth Approach,,Post Office,Spar,-1.911004,52.41057,7 Lindsworth Approach  Birmingham B30 3QH,Birmingham 118D,Birmingham 118,4457.86682380671,43300.0
node/5653916919,Birmingham,797,B321AJ,Hagley Road West,,Post Office,,-2.0100223,52.4618417,797 Hagley Road West  Birmingham B32 1AJ,Birmingham 080B,Birmingham 080,3610.7076156879,43100.0
node/259069654,Birmingham,8,B81JB,Alum Rock Road,,Post Office,,-1.858852,52.4915653,8 Alum Rock Road  Birmingham B8 1JB,Birmingham 051B,Birmingham 051,6408.45070422535,30300.0
node/315808960,Birmingham,227,B311UJ,Merrits Brook Lane,,,,-1.9847711,52.4166416,227 Merrits Brook Lane  Birmingham B31 1UJ,Birmingham 119D,Birmingham 119,3974.06733393994,34400.0
node/5472483588,Birmingham,16,B389BL,The Fold,,Post Office,,-1.92605,52.40191,16 The Fold  Birmingham B38 9BL,Birmingham 128A,Birmingham 128,4515.48735436203,33300.0
node/5590859711,Birmingham,95,B179NR,High Street,,Post Office,WHSmith,-1.9469927,52.4598469,95 High Street  Birmingham B17 9NR,Birmingham 075D,Birmingham 075,6644.55715957862,64000.0
node/64798187,Birmingham,276,B237LX,Slade Road,,,,-1.8564529,52.5174553,276 Slade Road  Birmingham B23 7LX,Birmingham 030C,Birmingham 030,8147.98206278026,37100.0
node/916854196,Birmingham,626,B130HW,Yardley Wood Road,,Post Office,,-1.8696665,52.4289486,626 Yardley Wood Road  Birmingham B13 0HW,Birmingham 111A,Birmingham 111,4485.7826202498,37400.0
node/60852053,Birmingham,7,B449JH,Kettlehouse Road,,,,-1.8848746,52.5538113,7 Kettlehouse Road  Birmingham B44 9JH,Birmingham 007A,Birmingham 007,4184.82758620689,49200.0
node/352979388,Birmingham,119,B186JS,Vyse Street,,Post Office,,-1.9121784,52.4876149,119 Vyse Street  Birmingham B18 6JS,Birmingham 049E,Birmingham 049,4450.63694267515,36600.0
node/2625234825,Birmingham,1706-1708,B459QD,Bristol Road South,,Post Office,,-1.9978975,52.395568,1706-1708 Bristol Road South  Birmingham B45 9QD,Birmingham 129C,Birmingham 129,4112.50364325269,36900.0
node/63300819,Birmingham,167,B236DN,Reservoir Road,,Post Office,,-1.8587473,52.5248652,167 Reservoir Road  Birmingham B23 6DN,Birmingham 026B,Birmingham 026,6971.69445521519,36200.0
node/2904764186,Birmingham,773,B312NH,Bristol Road South,,Post Office,,-1.9709925,52.4153381,773 Bristol Road South  Birmingham B31 2NH,Birmingham 109C,Birmingham 109,4564.70588235294,43800.0
node/60852076,Birmingham,921,B437DT,Queslett Road East,,Post Office,,-1.8936748,52.5606706,921 Queslett Road East  Birmingham B43 7DT,Birmingham 008A,Birmingham 008,6575.34246575342,35700.0
node/3108527566,Birmingham,1107,B312QP,Bristol Road South,,,,-1.9774154,52.4067839,1107 Bristol Road South  Birmingham B31 2QP,Birmingham 124D,Birmingham 124,4616.953762466,42000.0
node/5033281966,Birmingham,65,B388RU,The Green,,Post Office,,-1.929893,52.4073325,65 The Green  Birmingham B38 8RU,Birmingham 127D,Birmingham 127,1301.83777542576,44000.0
node/1534454172,Birmingham,347,B178DL,Hagley Road,,,,-1.9549506,52.4732088,347 Hagley Road  Birmingham B17 8DL,Birmingham 060E,Birmingham 060,4949.08896034298,45500.0
node/319778648,Birmingham,,B151LA,Islington Row Middleway,,Post Office,,-1.9167689,52.4726599,Islington Row Middleway  Birmingham B15 1LA,Birmingham 136B,Birmingham 136,11960.9623241034,39300.0
node/973599631,Birmingham,203-205,B191LL,Birchfield Road,,,,-1.9027257,52.5077842,203-205 Birchfield Road  Birmingham B19 1LL,Birmingham 035F,Birmingham 035,12615.3846153846,32600.0
node/319780141,Birmingham,,B356DL,Tangmere Square,,Post Office,,-1.7954182,52.5177379,Tangmere Square  Birmingham B35 6DL,Birmingham 029D,Birmingham 029,1335.21512274399,32600.0
node/316073128,Birmingham,1A,B475HD,Drakes Cross Parade,Wythall,Post Office,One Stop,-1.8837753,52.3851515,1A Drakes Cross Parade Wythall Birmingham B47 5HD,Bromsgrove 005A,Bromsgrove 005,237.738938927633,50100.0
node/317065757,Birmingham,126,B459HY,New Road,Rubery,Post Office,,-2.0207244,52.3926464,126 New Road Rubery Birmingham B45 9HY,Bromsgrove 003D,Bromsgrove 003,3871.91395746761,44200.0
node/964924621,Birmingham,37-39,B74LG,Revesby Walk,,,,-1.8762318,52.4868136,37-39 Revesby Walk  Birmingham B7 4LG,Birmingham 052E,Birmingham 052,2839.74608109858,30200.0
node/57521748,Birmingham,770,B440AL,College Road,,Post Office,,-1.8640199,52.5440197,770 College Road  Birmingham B44 0AL,Birmingham 014D,Birmingham 014,6234.73808586057,34400.0
node/666927846,Birmingham,1750,B261PB,Coventry Road,,Post Office,,-1.8029305,52.4608679,1750 Coventry Road  Birmingham B26 1PB,Birmingham 076D,Birmingham 076,6592.47889485802,40200.0
node/318503437,Birmingham,8,B296HX,Oak Tree Lane,,Post Office,,-1.9400995,52.4385715,8 Oak Tree Lane  Birmingham B29 6HX,Birmingham 099D,Birmingham 099,4563.21215409658,47200.0
node/358052051,Birmingham,352,B82RZ,Bromford Lane,,Post Office,,-1.8288516,52.5015733,352 Bromford Lane  Birmingham B8 2RZ,Birmingham 044B,Birmingham 044,6622.09302325581,36300.0
node/796160854,Bishop Auckland,28-29,DL147JH,Victoria Avenue,,Post Office,,-1.6745023,54.6632444,28-29 Victoria Avenue  Bishop Auckland DL14 7JH,County Durham 055A,County Durham 055,1201.56966782733,33400.0
node/6742936390,Bishop Auckland,,DL131QF,,,Post Office,,-2.1804353,54.7361943,Bishop Auckland DL13 1QF,County Durham 042A,County Durham 042,14.9560539190364,38300.0
node/3815802304,Bishop Auckland,,DL146HS,Cockton Hill Road,,Post Office,,-1.6774573,54.6536968,Cockton Hill Road  Bishop Auckland DL14 6HS,County Durham 058A,County Durham 058,4914.54614508165,29700.0
node/3505032606,Bishop Auckland,,DL132TS,Front Street,,,,-2.004865,54.7467899,Front Street  Bishop Auckland DL13 2TS,County Durham 042C,County Durham 042,9.61834479584181,38300.0
node/796160859,Bishop Auckland,,DL149HL,,,Post Office,,-1.7203992,54.6313269,Bishop Auckland DL14 9HL,County Durham 057C,County Durham 057,1997.4176888315,36700.0
node/796160849,Bishop Auckland,,DL148TD,,,Post Office,,-1.6482537,54.6444119,Bishop Auckland DL14 8TD,County Durham 055D,County Durham 055,596.565121092189,33400.0
node/9349589281,Bishop Auckland,,DL135DS,,,Post Office,,-1.8095613,54.6133617,Bishop Auckland DL13 5DS,County Durham 064A,County Durham 064,231.992861758099,37400.0
node/4032230463,Bishop Auckland,,DL135RH,,,Post Office,,-1.8982479,54.6310977,Bishop Auckland DL13 5RH,County Durham 064G,County Durham 064,24.2230383715207,37400.0
node/1037989985,Bishops Castle,,SY95AA,Church Street,,Post Office,Spar,-2.9984014,52.4911842,Church Street  Bishops Castle SY9 5AA,Shropshire 030B,Shropshire 030,744.492525570417,41200.0
node/6056137395,Bisley,,GL67BA,High Street,,,,-2.1393941,51.7527325,High Street  Bisley GL6 7BA,Stroud 002A,Stroud 002,76.2084010608264,56000.0
node/7964989034,Blaby,1-3,LE84GR,Leicester Road,,Post Office,,-1.1632459,52.5758723,1-3 Leicester Road  Blaby LE8 4GR,Blaby 008E,Blaby 008,795.290725612686,40900.0
node/2459362700,Blackawton,,TQ97BG,Main Street,,,,-3.6814128,50.3452593,Main Street  Blackawton TQ9 7BG,South Hams 004D,South Hams 004,40.2978553440131,47000.0
node/33137695,Blackburn,712,BB25EP,Preston Old Road,,,,-2.5384022,53.7268595,712 Preston Old Road  Blackburn BB2 5EP,Blackburn with Darwen 010D,Blackburn with Darwen 010,149.922040538919,47300.0
node/972720055,Blackburn,325,BB12NF,Haslingden Road,Guide,Post Office,,-2.4474535,53.7280899,325 Haslingden Road Guide Blackburn BB1 2NF,Blackburn with Darwen 011F,Blackburn with Darwen 011,807.94606482316,37300.0
node/634660171,Blackburn,,BB67HQ,Glebe Street,,Post Office,,-2.4073631,53.7856942,Glebe Street  Blackburn BB6 7HQ,Hyndburn 001C,Hyndburn 001,3545.41559554413,36200.0
node/49343667,Blackburn,38,BB21NU,Whalley Banks,,,,-2.492049,53.7440594,38 Whalley Banks  Blackburn BB2 1NU,Blackburn with Darwen 006E,Blackburn with Darwen 006,2935.11299061715,28000.0
node/5036735747,Blackburn,30,BB27ER,Carter Fold,Mellor,Post Office,Spar,-2.5267239,53.7711497,30 Carter Fold Mellor Blackburn BB2 7ER,Ribble Valley 008E,Ribble Valley 008,233.560162808445,50900.0
node/972638545,Blackburn,120-126,BB23EP,Manxman Road,,Post Office,,-2.4741352,53.7316121,120-126 Manxman Road  Blackburn BB2 3EP,Blackburn with Darwen 011B,Blackburn with Darwen 011,4186.81318681318,37300.0
node/662054808,Blackburn,13,BB14JZ,High Street,Rishton,,,-2.4142084,53.7682237,13 High Street Rishton Blackburn BB1 4JZ,Hyndburn 003B,Hyndburn 003,1835.77629144727,37000.0
node/3427842030,Blackburn,29-33,BB16AT,Ainsworth Street,,,,-2.4816553,53.7496363,29-33 Ainsworth Street  Blackburn BB1 6AT,Blackburn with Darwen 006D,Blackburn with Darwen 006,6910.52335396736,28000.0
node/2638420411,Blackfen,3-4,DA159LU,Blackfen Parade,,Post Office,,0.104725,51.4501958,3-4 Blackfen Parade  Blackfen DA15 9LU,Bexley 021B,Bexley 021,7608.14249363867,55100.0
node/5514430185,Blackpool,,FY37JJ,,,,,-3.0204169,53.8344471,Blackpool FY3 7JJ,Blackpool 004E,Blackpool 004,2516.21518504387,35500.0
node/619748996,Blackpool,317,FY20HL,Red Bank Road,,,,-3.0406802,53.8520466,317 Red Bank Road  Blackpool FY2 0HL,Blackpool 002B,Blackpool 002,3986.74765323025,34600.0
node/930238046,Blackpool,41-43,FY15DS,Central Drive,,Post Office,,-3.0499951,53.8120896,41-43 Central Drive  Blackpool FY1 5DS,Blackpool 010A,Blackpool 010,8744.47949526813,25600.0
node/759802133,Blackpool,148-152,FY20BX,Ashfield Road,,Post Office,,-3.0330148,53.8548485,148-152 Ashfield Road  Blackpool FY2 0BX,Blackpool 002B,Blackpool 002,3986.74765323025,34600.0
node/11626488656,Blackpool,2-4,FY45AU,Common Edge Road,,Post Office,,-3.0249559,53.7891742,2-4 Common Edge Road  Blackpool FY4 5AU,Blackpool 018E,Blackpool 018,2533.44481605351,37000.0
node/619748974,Blackpool,269,FY20TN,Devonshire Road,,,,-3.0404848,53.8324579,269 Devonshire Road  Blackpool FY2 0TN,Blackpool 005D,Blackpool 005,6560.27037176117,40100.0
node/717491541,Blackpool,24,FY42JA,Highfield Road,,Post Office,,-3.0457314,53.7857197,24 Highfield Road  Blackpool FY4 2JA,Blackpool 017B,Blackpool 017,7338.62959285004,35900.0
node/619748999,Blackpool,114,FY20NN,Bispham Road,,Post Office,McColl's,-3.0311725,53.8411811,114 Bispham Road  Blackpool FY2 0NN,Blackpool 004A,Blackpool 004,3865.76858311282,35500.0
node/8971552569,Blackpool,2B,FY13EF,Cookson Street,,Post Office,,-3.0489724,53.8204605,2B Cookson Street  Blackpool FY1 3EF,Blackpool 010E,Blackpool 010,4110.71077628562,25600.0
node/759802122,Blackpool,157,FY44NG,Vicarage Lane,,Post Office,,-3.025271,53.7973138,157 Vicarage Lane  Blackpool FY4 4NG,Blackpool 016D,Blackpool 016,4629.76813762154,32600.0
node/759802116,Blackpool,189,FY42QQ,Squires Gate Lane,,Post Office,,-3.0403223,53.7796104,189 Squires Gate Lane  Blackpool FY4 2QQ,Blackpool 019D,Blackpool 019,6623.08385933273,36500.0
node/4568534584,Blackpool,27,FY39AA,Whitegate Drive,,Post Office,,-3.0378853,53.8174498,27 Whitegate Drive  Blackpool FY3 9AA,Blackpool 010C,Blackpool 010,7547.3933649289,25600.0
node/759802136,Blackpool,53-55,FY16PU,Ansdell Road,,,,-3.0397101,53.8039906,53-55 Ansdell Road  Blackpool FY1 6PU,Blackpool 015B,Blackpool 015,6873.99678972712,30800.0
node/9507418088,Blackpool,39-43,FY37BH,Westcliffe Drive,,Post Office,Morrisons Daily,-3.0301826,53.8292144,39-43 Westcliffe Drive  Blackpool FY3 7BH,Blackpool 007A,Blackpool 007,4765.79925650557,28400.0
node/5269692340,Blackpool,112,FY38QP,Normoss Road,,Post Office,,-3.0053321,53.8280556,112 Normoss Road  Blackpool FY3 8QP,Wyre 014B,Wyre 014,2520.9095661265,46200.0
node/2691034217,Blaenau Ffestiniog,,LL414SF,Chapel Street,,,Glyndwr Jones,-3.9232475,52.9030082,Chapel Street  Blaenau Ffestiniog LL41 4SF,Gwynedd 009D,Gwynedd 009,8.91535141606023,34000.0
node/12735462425,Blaenavon,40,NP49NF,Broad Street,,Post Office,,-3.083943,51.774216,40 Broad Street  Blaenavon NP4 9NF,Torfaen 001C,Torfaen 001,137.81835301068,33800.0
node/1037989983,Blaenavon,8,NP49DE,Clapham Terrace,,Post Office,,-3.0950203,51.7701451,8 Clapham Terrace  Blaenavon NP4 9DE,Torfaen 001C,Torfaen 001,137.81835301068,33800.0
node/2072355863,Blaina,96,NP133AE,High Street,,Post Office,,-3.1602013,51.7654888,96 High Street  Blaina NP13 3AE,Blaenau Gwent 005A,Blaenau Gwent 005,967.766990291262,34300.0
node/1037989982,Blakeney,,GL154EE,High Street,,,,-2.4794888,51.7597859,High Street  Blakeney GL15 4EE,Forest of Dean 005A,Forest of Dean 005,81.2001709477283,49800.0
node/4453586700,Blaydon-on-Tyne,,NE216AW,Church Street,,Post Office,Spar,-1.728121,54.9538817,Church Street  Blaydon-on-Tyne NE21 6AW,Gateshead 004E,Gateshead 004,3500.18747656542,32800.0
node/269192292,Blewbury,,OX119QQ,Heather Way,,Post Office,,-1.2372841,51.5711967,Heather Way  Blewbury OX11 9QQ,Vale of White Horse 015A,Vale of White Horse 015,95.3479128721866,62600.0
node/7984941217,Blyth,19,NE245PP,Brierley Road,,,,-1.5367675,55.124796,19 Brierley Road  Blyth NE24 5PP,Northumberland 022A,Northumberland 022,1835.84887047449,25900.0
node/451014202,Blyth,176,NE243JA,Plessey Road,,,,-1.5091646,55.1209424,176 Plessey Road  Blyth NE24 3JA,Northumberland 024D,Northumberland 024,4584.82829318298,30100.0
node/9572811969,Bodmin,40,PL312HL,Fore Street,,Post Office,Costcutter,-4.7207339,50.4710925,40 Fore Street  Bodmin PL31 2HL,Cornwall 014B,Cornwall 014,4448.55491329479,42200.0
node/1362176784,Bognor Regis,10,PO220ES,Barnham Road,Barnham,Post Office,Barnham Trading Post,-0.6381659,50.8317465,10 Barnham Road Barnham Bognor Regis PO22 0ES,Arun 003B,Arun 003,5811.44296509535,50900.0
node/1168747759,Bognor Regis,4,PO229DJ,Durlston Drive,,Post Office,One Stop,-0.6822613,50.7978573,4 Durlston Drive  Bognor Regis PO22 9DJ,Arun 012D,Arun 012,5441.6282642089,52300.0
node/1168747821,Bognor Regis,295,PO215AL,Chichester Road,,Post Office,Nisa Local,-0.69096,50.797255,295 Chichester Road  Bognor Regis PO21 5AL,Arun 012C,Arun 012,6104.8839071257,52300.0
node/1168747672,Bognor Regis,91-93,PO226HB,Elmer Road,,Post Office,,-0.6102001,50.793137,91-93 Elmer Road  Bognor Regis PO22 6HB,Arun 013C,Arun 013,1085.52631578947,40000.0
node/8932353870,Bognor Regis,5,PO213EU,Rose Green Road,,Post Office,,-0.7159851,50.7853293,5 Rose Green Road  Bognor Regis PO21 3EU,Arun 019F,Arun 019,3725.44740288083,42000.0
node/4985231293,Bognor Regis,10,PO211PY,London Road,,Post Office,,-0.6741273,50.7841119,10 London Road  Bognor Regis PO21 1PY,Arun 017D,Arun 017,10109.3983092988,44500.0
node/4962494709,Bolton,20,BL26BH,Tonge Old Road,,,,-2.4050526,53.5803475,20 Tonge Old Road  Bolton BL2 6BH,Bolton 017F,Bolton 017,2846.8809073724,33900.0
node/5598821393,Bolton,1,BL48PZ,Kearsley Mount Precinct,,,,-2.3670932,53.5367716,1 Kearsley Mount Precinct  Bolton BL4 8PZ,Bolton 034B,Bolton 034,856.47909137842,38700.0
node/6417565277,Bolton,183,BL32JS,Crescent Road,,Post Office,,-2.41691,53.5627113,183 Crescent Road  Bolton BL3 2JS,Bolton 022A,Bolton 022,4321.41219624025,33000.0
node/5325639476,Bolton,,BL25RA,,,Post Office,,-2.3585614,53.5880423,Bolton BL2 5RA,Bury 012C,Bury 012,389.20348385984,47200.0
node/371634728,Bolton,,BL53AG,,,Post Office,,-2.5214074,53.54873,Bolton BL5 3AG,Bolton 031C,Bolton 031,3796.81803115677,36700.0
node/5248464886,Bolton,,BL21AD,,,Post Office,,-2.4176664,53.5783105,Bolton BL2 1AD,Bolton 017A,Bolton 017,7225.88623248145,33900.0
node/6183268907,Bolton,,BL51ER,,,Post Office,,-2.4709722,53.5451937,Bolton BL5 1ER,Bolton 030A,Bolton 030,456.648736190641,45600.0
node/5235025606,Bolton,12,BL11RF,Oxford Street,,Post Office,,-2.4299512,53.579163,12 Oxford Street  Bolton BL1 1RF,Bolton 022E,Bolton 022,2626.29839471199,33000.0
node/3725505568,Bolton,23,BL31HH,Market Street,,Post Office,Post Office,-2.3708779,53.5618122,23 Market Street  Bolton BL3 1HH,Bolton 024A,Bolton 024,4871.46529562982,36600.0
node/1018183122,Bolton,,BL49PU,,,Post Office,,-2.4118624,53.5433678,Bolton BL4 9PU,Bolton 033A,Bolton 033,4057.38533036977,34900.0
node/6774952932,Bolton,,BL33NH,,,Post Office,,-2.4475037,53.5652342,Bolton BL3 3NH,Bolton 023B,Bolton 023,7121.06299212598,33800.0
node/4970343031,Bolton,,BL25BN,,,Post Office,,-2.3954136,53.5911422,Bolton BL2 5BN,Bolton 013C,Bolton 013,5046.49409399346,32000.0
node/270592537,Bolton Le Sands,28,LA58DL,Main Road,,Post Office,,-2.7902325,54.106314,28 Main Road  Bolton Le Sands LA5 8DL,Lancaster 003A,Lancaster 003,553.83543617927,43000.0
node/11297570246,Bootle,,L206DU,Orrell Road,,Post Office,,-2.9848841,53.4672828,Orrell Road  Bootle L20 6DU,Sefton 035C,Sefton 035,6918.73589164785,34900.0
node/11297570237,Bootle,,L207BZ,Stanley Road,,Post Office,,-2.9886903,53.4429233,Stanley Road  Bootle L20 7BZ,Sefton 037E,Sefton 037,4781.01071975497,28000.0
node/11297570231,Bootle,,L301QG,Park Lane,,Post Office,,-2.9649184,53.4788439,Park Lane  Bootle L30 1QG,Sefton 029A,Sefton 029,2467.51261275034,33900.0
node/2004779953,Bootle,,L305QA,Marian Square,,Post Office,,-2.9728881,53.4877637,Marian Square  Bootle L30 5QA,Sefton 029D,Sefton 029,2974.03233708966,33900.0
node/1983963797,Bordon,,GU350TN,Pinehill Road,,Post Office,,-0.8585364,51.1092077,Pinehill Road  Bordon GU35 0TN,East Hampshire 004B,East Hampshire 004,5698.2421875,58400.0
node/773426488,Borehamwood,,WD61QU,,,Post Office,,-0.2613368,51.6512643,Borehamwood WD6 1QU,Hertsmere 011D,Hertsmere 011,3079.35504268099,57500.0
node/10924095306,Borehamwood,57,WD61AE,Shenley Road,,Post Office,,-0.2771373,51.6553097,57 Shenley Road  Borehamwood WD6 1AE,Hertsmere 007B,Hertsmere 007,5848.29443447037,53200.0
node/773426737,Borehamwood,,WD64DY,,,Post Office,,-0.2837503,51.6679904,Borehamwood WD6 4DY,Hertsmere 006C,Hertsmere 006,4423.48565356004,48000.0
node/1921545219,Borth,,SY245JP,High Street,,Post Office,,-4.0513346,52.4921523,High Street  Borth SY24 5JP,Ceredigion 001F,Ceredigion 001,77.9769999292547,41500.0
node/401875916,Boscastle,,PL350HF,Penally Hill,,,Spar,-4.6906994,50.6900103,Penally Hill  Boscastle PL35 0HF,Cornwall 003D,Cornwall 003,34.6419787819812,38400.0
node/7293219309,Boston,17-19,PE201DT,Boston Road,,Post Office,,-0.0576286,52.9300955,17-19 Boston Road  Boston PE20 1DT,Boston 007D,Boston 007,378.067710939203,38100.0
node/1465009003,Boston,,PE228RD,Church Road,Friskney,,,0.1797455,53.0748093,Church Road Friskney Boston PE22 8RD,East Lindsey 017C,East Lindsey 017,42.6043318915348,32400.0
node/4677385281,Boston,,PE210AN,,,Post Office,,-0.0075095,52.9700832,Boston PE21 0AN,Boston 004D,Boston 004,4224.90325517869,36400.0
node/7293123916,Boston,,PE203BX,Gauntlet Road,,,,-0.1812342,52.9244217,Gauntlet Road  Boston PE20 3BX,Boston 006A,Boston 006,73.9037255829091,38200.0
node/10940108798,Boston,18A,PE210PH,Eastwood Road,,Post Office,One Stop,-0.0020733,52.9768266,18A Eastwood Road  Boston PE21 0PH,Boston 008A,Boston 008,194.936054773285,46300.0
node/7295154415,Boston,,PE220LE,Church View,,,,0.0493298,52.974404,Church View  Boston PE22 0LE,Boston 001B,Boston 001,69.0670131660449,36400.0
node/7294928635,Boston,5-7,PE220ET,Brand End Road,Butterwick,,,0.0666153,52.9847607,5-7 Brand End Road Butterwick Boston PE22 0ET,Boston 001A,Boston 001,158.954680410061,36400.0
node/8780467458,Boston,27,PE216EG,Strait Bargate,,,,-0.0223853,52.9792262,27 Strait Bargate  Boston PE21 6EG,Boston 003C,Boston 003,2589.74913494809,40500.0
node/905353255,Boston,10,PE227BU,Leagate Road,,,,-0.0921229,53.0309986,10 Leagate Road  Boston PE22 7BU,East Lindsey 018A,East Lindsey 018,26.7268652335692,36500.0
node/5815875456,Boston,,PE202JQ,One Way Street,,,,-0.0910768,52.9039763,One Way Street  Boston PE20 2JQ,Boston 006A,Boston 006,73.9037255829091,38200.0
node/905353194,Boston,,PE228AY,Main Road,Stickney,,,0.0050291,53.0928579,Main Road Stickney Boston PE22 8AY,East Lindsey 018D,East Lindsey 018,43.3962928702912,36500.0
node/4908031006,Boughton-under-Blean,49,ME139BA,The Street,,Post Office,Post Office Ltd,0.9582824,51.2948511,49 The Street  Boughton-under-Blean ME13 9BA,Swale 017C,Swale 017,1299.41091095364,50000.0
node/4678609531,Bourne,25,PE100NR,High Street,,Post Office,,-0.3772259,52.8026154,25 High Street  Bourne PE10 0NR,South Kesteven 008B,South Kesteven 008,277.865989202921,42400.0
node/6122283153,Bourne,9-10,PE100HB,The Green,,Post Office,,-0.379947,52.7389988,9-10 The Green  Bourne PE10 0HB,South Kesteven 012B,South Kesteven 012,134.963620141498,47900.0
node/8857260296,Bovey Tracey,42,TQ139AD,Fore Street,,,Spar,-3.6751125,50.593682,42 Fore Street  Bovey Tracey TQ13 9AD,Teignbridge 004B,Teignbridge 004,2571.3348638898,46300.0
node/2415106743,Bracknell,,RG120TH,Crown Row,,Post Office,,-0.736605,51.3959178,Crown Row  Bracknell RG12 0TH,Bracknell Forest 008D,Bracknell Forest 008,4946.8488990129,66800.0
node/777468700,Bradford,112,BD150AB,Main Street,Wilsden,Post Office,,-1.8606798,53.8231473,112 Main Street Wilsden Bradford BD15 0AB,Bradford 022D,Bradford 022,2181.28464297359,45400.0
node/1633040689,Bradford,953,BD38JB,Leeds Road,,,,-1.7122476,53.7972294,953 Leeds Road  Bradford BD3 8JB,Bradford 038A,Bradford 038,9776.44492911668,28600.0
node/1633040695,Bradford,,BD48DP,Sticker Lane,,Post Office,,-1.718336,53.7875683,Sticker Lane  Bradford BD4 8DP,Bradford 046C,Bradford 046,4765.25821596244,29800.0
node/5248165217,Bradford,7,BD89LZ,Kensington Street,,Post Office,,-1.7855528,53.7996617,7 Kensington Street  Bradford BD8 9LZ,Bradford 037D,Bradford 037,12304.2929292929,30900.0
node/4718321294,Bradford,22-24,BD131AF,Sandbeds,Queensbury,,,-1.8418041,53.7688796,22-24 Sandbeds Queensbury Bradford BD13 1AF,Bradford 058D,Bradford 058,1984.22397511387,40100.0
node/1654165549,Bradford,1,BD30LR,Airedale Road,,Post Office,,-1.7427349,53.804876,1 Airedale Road  Bradford BD3 0LR,Bradford 035C,Bradford 035,4518.45493562231,30400.0
node/5595314620,Bradford,8,BD94BB,Highgate,Heaton,Post Office,,-1.785385,53.815692,8 Highgate Heaton Bradford BD9 4BB,Bradford 029A,Bradford 029,3340.478742408,38100.0
node/303039739,Bradford,23-25,BD47AB,Hall Lane,,Post Office,,-1.744851,53.7882836,23-25 Hall Lane  Bradford BD4 7AB,Bradford 045C,Bradford 045,1943.93099199014,26400.0
node/858525709,Bradford,41,BD72JL,Beckside Road,,Post Office,,-1.7882362,53.7867353,41 Beckside Road  Bradford BD7 2JL,Bradford 049J,Bradford 049,9710.82716879623,35100.0
node/868989438,Bradford,93,BD100JJ,Ravenscliffe Avenue,,Post Office,,-1.7110569,53.8185107,93 Ravenscliffe Avenue  Bradford BD10 0JJ,Bradford 027B,Bradford 027,7140.98789663068,30700.0
node/269032264,Bradford,2,BD109PP,Bradford Road,Idle,Post Office,,-1.7307321,53.8349516,2 Bradford Road Idle Bradford BD10 9PP,Bradford 019E,Bradford 019,5743.34430152557,40200.0
node/301269196,Bradford,6,BD59HS,Southfield Lane,,,,-1.7729299,53.7760534,6 Southfield Lane  Bradford BD5 9HS,Bradford 051C,Bradford 051,10937.0037056643,28300.0
node/656736050,Bradford,73,BD46AX,Hambledon Avenue,Bierley,,,-1.7303693,53.766854,73 Hambledon Avenue Bierley Bradford BD4 6AX,Bradford 057D,Bradford 057,7568.4740078256,38000.0
node/870710257,Bradford,91-93,BD111EJ,King Street,,,,-1.6575127,53.7547343,91-93 King Street  Bradford BD11 1EJ,Leeds 096B,Leeds 096,1037.18637992831,41800.0
node/457161551,Bradford,395,BD49RU,Tong Street,,Post Office,,-1.7107761,53.7680589,395 Tong Street  Bradford BD4 9RU,Bradford 057A,Bradford 057,3669.74543816174,38000.0
node/5637635275,Bradford,7,BD94PU,Oak Lane,,Post Office,,-1.7684491,53.8090365,7 Oak Lane  Bradford BD9 4PU,Bradford 034B,Bradford 034,4967.74193548387,28100.0
node/870713890,Bradford,54,BD134BL,Main Road,Denholme,Post Office,,-1.894292,53.8024365,54 Main Road Denholme Bradford BD13 4BL,Bradford 031D,Bradford 031,445.649271969276,38800.0
node/5637635274,Bradford,25,BD95AD,Lilycroft Road,,Post Office,,-1.78062,53.80692,25 Lilycroft Road  Bradford BD9 5AD,Bradford 033C,Bradford 033,8648.26610049539,30800.0
node/549244735,Bradford,,BD112BE,Bradford Road,,Post Office,,-1.6961505,53.7596892,Bradford Road  Bradford BD11 2BE,Kirklees 001B,Kirklees 001,1279.11567311488,44000.0
node/870712136,Bradford,48,BD129JA,Towngate,Wyke,Post Office,,-1.7687367,53.7397403,48 Towngate Wyke Bradford BD12 9JA,Bradford 061D,Bradford 061,2754.68105363376,34000.0
node/359061121,Bradford,6-8,BD133EL,Kipping Lane,Thornton,Post Office,,-1.851223,53.7906317,6-8 Kipping Lane Thornton Bradford BD13 3EL,Bradford 043E,Bradford 043,4803.67321089297,38200.0
node/871070134,Bradford,2-4,BD23SX,Wharncliffe Drive,,Post Office,,-1.7171894,53.8179342,2-4 Wharncliffe Drive  Bradford BD2 3SX,Bradford 027A,Bradford 027,4454.22535211267,30700.0
node/870714446,Bradford,7,BD135DD,Halifax Road,Cullingworth,Post Office,,-1.8987627,53.8259916,7 Halifax Road Cullingworth Bradford BD13 5DD,Bradford 031A,Bradford 031,211.286288183127,38800.0
node/870715590,Bradford,2,BD146RH,Cambridge Street,Clayton,Post Office,,-1.8220762,53.7824066,2 Cambridge Street Clayton Bradford BD14 6RH,Bradford 047B,Bradford 047,950.330175136376,35300.0
node/870717527,Bradford,2-4,BD157YZ,Greenway Drive,Allerton,,,-1.8248235,53.7970244,2-4 Greenway Drive Allerton Bradford BD15 7YZ,Bradford 043A,Bradford 043,1784.12528919736,38200.0
node/870716852,Bradford,354,BD157BN,Allerton Road,Allerton,,,-1.82142,53.8058695,354 Allerton Road Allerton Bradford BD15 7BN,Bradford 036C,Bradford 036,2868.21705426356,34000.0
node/8195998070,Braintree,,CM777AP,GRIDSERVE Braintree Electric Forecourt,,Post Office,Post Office Ltd.,0.521917,51.8527947,GRIDSERVE Braintree Electric Forecourt  Braintree CM77 7AP,Braintree 013D,Braintree 013,1541.73445125766,53400.0
node/2271185257,Brampton,,CA82NJ,Hall Bank Lane,,Post Office,,-2.6564521,54.929747,Hall Bank Lane  Brampton CA8 2NJ,Carlisle 002D,Carlisle 002,8.51478863972381,38200.0
node/1037989991,Brampton,,CA81NN,Front Street,,Post Office,,-2.7350072,54.9419114,Front Street  Brampton CA8 1NN,Carlisle 002B,Carlisle 002,1329.4064340734,38200.0
node/11277736003,Brandon,,IP270QN,Hereward Way,Weeting,Post Office,Londis,0.6104379,52.4688934,Hereward Way Weeting Brandon IP27 0QN,Breckland 012C,Breckland 012,231.014487349206,42100.0
node/12151317566,Braunstone Town,10,LE32GA,Ayston Road,,Post Office,,-1.1700792,52.6143632,10 Ayston Road  Braunstone Town LE3 2GA,Blaby 005F,Blaby 005,5858.41313269493,39200.0
node/10878163137,Braunton,,EX332BH,,,Post Office,Premier Express,-4.1563839,51.1015282,Braunton EX33 2BH,North Devon 005A,North Devon 005,3706.00067046597,45000.0
node/1123025878,Braunton,,EX331JJ,,,Post Office,,-4.19618,51.136646,Braunton EX33 1JJ,North Devon 004C,North Devon 004,81.1217493659519,47600.0
node/9379463136,Bream,,GL156ND,Brockhollands Road,,Post Office,,-2.5730158,51.7506109,Brockhollands Road  Bream GL15 6ND,Forest of Dean 008A,Forest of Dean 008,953.985527260675,41900.0
node/7101238779,Brecon,,LD30BW,The Square,Talgarth,Post Office,,-3.2323393,51.996079,The Square Talgarth Brecon LD3 0BW,Powys 015E,Powys 015,31.4048660366408,38400.0
node/7101238780,Brecon,,LD38PG,High Street,Sennybridge,Post Office,,-3.56828,51.9476,High Street Sennybridge Brecon LD3 8PG,Powys 020B,Powys 020,7.06000293740222,44600.0
node/3096076732,Brecon,,LD37HY,Lion Street,,,Co-op,-3.3906714,51.9483736,Lion Street  Brecon LD3 7HY,Powys 017D,Powys 017,1948.08599895123,39900.0
node/7101269691,Brecon,,LD30LG,Hay Road,Bronllys,Post Office,Morrisons Daily,-3.2458705,52.0078984,Hay Road Bronllys Brecon LD3 0LG,Powys 015A,Powys 015,19.1653230470864,38400.0
node/297016521,Brecon,,LD37YJ,,,Post Office,Talybont Stores,-3.2903262,51.8961278,Brecon LD3 7YJ,Powys 020D,Powys 020,8.97419868460781,44600.0
node/1037295902,Brecon,,LD30YD,Main Road,,,,-3.268455,52.0383871,Main Road  Brecon LD3 0YD,Powys 015B,Powys 015,18.3258504746056,38400.0
node/4979386800,Brecon,,LD39HN,Bryn de Winton,,,,-3.3947095,51.9514271,Bryn de Winton  Brecon LD3 9HN,Powys 017F,Powys 017,2219.36274509803,39900.0
node/3555209083,Brecon,,LD37HJ,,,,,-3.2419315,51.8926457,Brecon LD3 7HJ,Powys 018H,Powys 018,16.1169587645574,43700.0
node/12410087975,Bricket Wood,107,AL23QB,Oakwood Road,,Post Office,,-0.3669828,51.7082323,107 Oakwood Road  Bricket Wood AL2 3QB,St Albans 020E,St Albans 020,710.070153297947,59300.0
node/8252762170,Bridge,75,CT45LB,High Street,,Post Office,The Red Lion Inn,1.1267583,51.2450983,75 High Street  Bridge CT4 5LB,Canterbury 018C,Canterbury 018,201.430557817334,51000.0
node/686889793,Bridgend,,CF314DD,Bryngolau,,Post Office,,-3.6026115,51.5079335,Bryngolau  Bridgend CF31 4DD,Bridgend 017B,Bridgend 017,3402.17632689318,46300.0
node/4618125537,Bridgend,4-5,CF311AB,Wyndham Street,,Post Office,Post Office,-3.5794071,51.5069513,4-5 Wyndham Street  Bridgend CF31 1AB,Bridgend 014A,Bridgend 014,3740.68901303538,35600.0
node/3340347388,Bridgend,52,CF314JR,Llangewydd Road,,Post Office,,-3.5927737,51.5109681,52 Llangewydd Road  Bridgend CF31 4JR,Bridgend 012D,Bridgend 012,3565.23247744621,37100.0
node/774437987,Bridgnorth,,WV166LP,High Street,Highley,,,-2.3823613,52.4485723,High Street Highley Bridgnorth WV16 6LP,Shropshire 035D,Shropshire 035,484.591013824884,39300.0
node/5589784171,Bridgnorth,,WV155LF,Main Street,Worfield,Post Office,,-2.3575499,52.5582037,Main Street Worfield Bridgnorth WV15 5LF,Shropshire 034E,Shropshire 034,42.239315616152,45400.0
node/774437923,Bridgnorth,16-18,WV164PP,Sydney Cottage Drive,,Post Office,,-2.4332277,52.5390751,16-18 Sydney Cottage Drive  Bridgnorth WV16 4PP,Shropshire 031C,Shropshire 031,5704.86397361912,41700.0
node/3918538781,Bridgwater,,TA70NZ,Church Road,Middlezoy,Post Office,Post Office Ltd,-2.8936857,51.091351,Church Road Middlezoy Bridgwater TA7 0NZ,Sedgemoor 012D,Sedgemoor 012,66.6179642385027,47700.0
node/6655296166,Bridgwater,,TA51BS,High Street,Spaxton,Post Office,Post Office Ltd,-3.1059845,51.125706,High Street Spaxton Bridgwater TA5 1BS,Sedgemoor 007E,Sedgemoor 007,30.7889615540158,46600.0
node/6655296179,Bridgwater,,TA66YA,Allen Road,,Post Office,Post Office Ltd,-3.0075873,51.1137331,Allen Road  Bridgwater TA6 6YA,Sedgemoor 013A,Sedgemoor 013,7735.08594539939,37700.0
node/6655296185,Bridgwater,135,TA66BD,Taunton Road,,Post Office,Post Office Ltd,-2.9988115,51.1205989,135 Taunton Road  Bridgwater TA6 6BD,Sedgemoor 013B,Sedgemoor 013,2573.44124700239,37700.0
node/6655296186,Bridgwater,2-5,TA64RA,Parkway,,Post Office,Post Office Ltd,-2.9828071,51.1309993,2-5 Parkway  Bridgwater TA6 4RA,Sedgemoor 008C,Sedgemoor 008,3334.00200601805,36000.0
node/6655296191,Bridgwater,42,TA78HQ,Woolavington Hill,Woolavington,Post Office,Post Office Ltd,-2.9351275,51.1641774,42 Woolavington Hill Woolavington Bridgwater TA7 8HQ,Sedgemoor 006D,Sedgemoor 006,324.574745684662,43000.0
node/6655491657,Bridgwater,,TA79JN,The Gwilliam Business Park,Edington,Post Office,Post Office Ltd,-2.8798922,51.1511607,The Gwilliam Business Park Edington Bridgwater TA7 9JN,Sedgemoor 012E,Sedgemoor 012,69.1778438144191,47700.0
node/3480182861,Bridgwater,,TA67LW,Dunkery Road,,Post Office,Post Office Ltd,-3.0217539,51.1246652,Dunkery Road  Bridgwater TA6 7LW,Sedgemoor 011C,Sedgemoor 011,2878.25965695161,50600.0
node/1123025837,Bridgwater,"10,12",TA52HE,High Street,Cannington,Post Office,Post Office,-3.0650334,51.1511254,"10,12 High Street Cannington Bridgwater TA5 2HE",Sedgemoor 007C,Sedgemoor 007,388.029589778076,46600.0
node/631131246,Bridgwater,1,TA51LN,Castle Street,Nether Stowey,Post Office,Post Office Ltd,-3.1566969,51.151115,1 Castle Street Nether Stowey Bridgwater TA5 1LN,Sedgemoor 007D,Sedgemoor 007,95.2661353073542,46600.0
node/1123025986,Bridgwater,125,TA66SB,Fore Street,North Petherton,Post Office,Post Office,-3.0172151,51.0910192,125 Fore Street North Petherton Bridgwater TA6 6SB,Sedgemoor 014D,Sedgemoor 014,1359.39670569557,49700.0
node/3224036477,Bridlington,42,YO151HB,High Street,,,,-0.1797999,54.1317322,42 High Street  Bridlington YO15 1HB,East Riding of Yorkshire 001A,East Riding of Yorkshire 001,54.1847727442585,32600.0
node/11278989850,Bridlington,234,YO164JG,Quay Road,,Post Office,Spar,-0.2028622,54.088637,234 Quay Road  Bridlington YO16 4JG,East Riding of Yorkshire 004C,East Riding of Yorkshire 004,3603.18994683421,26500.0
node/185907801,Bridlington,15-17,YO152AA,Quay Road,,Post Office,,-0.1945468,54.0846812,15-17 Quay Road  Bridlington YO15 2AA,East Riding of Yorkshire 004C,East Riding of Yorkshire 004,3603.18994683421,26500.0
node/542320115,Bridlington,,YO151PD,Tower Street,Flamborough,,,-0.1245724,54.1163503,Tower Street Flamborough Bridlington YO15 1PD,East Riding of Yorkshire 002D,East Riding of Yorkshire 002,169.033348083189,32800.0
node/11094333689,Bridlington,,YO166TN,,,Post Office,Morrisons Daily,-0.1773005,54.0995406,Bridlington YO16 6TN,East Riding of Yorkshire 002E,East Riding of Yorkshire 002,488.099552978132,32800.0
node/5566868920,Brierley Hill,41-42,DY52AA,High Street,Quarry Bank,Post Office,,-2.1045,52.4726,41-42 High Street Quarry Bank Brierley Hill DY5 2AA,Dudley 025C,Dudley 025,5305.79570925392,36300.0
node/4946398394,Brigg,1,DN209AQ,Chapel Lane,,Post Office,,-0.5404814,53.5372731,1 Chapel Lane  Brigg DN20 9AQ,North Lincolnshire 021B,North Lincolnshire 021,432.975028035338,44800.0
node/9868186368,Brigg,8,DN208ER,Wrawby Street,,Post Office,,-0.4908918,53.5523028,8 Wrawby Street  Brigg DN20 8ER,North Lincolnshire 011E,North Lincolnshire 011,1263.37319068596,37700.0
node/9875808335,Brigg,,DN200PW,Main Street,Bonby,Post Office,,-0.48309,53.62378,Main Street Bonby Brigg DN20 0PW,North Lincolnshire 011B,North Lincolnshire 011,41.8210386750876,37700.0
node/9868186369,Brigg,72,DN200HZ,High Street,,Post Office,,-0.5496,53.5661,72 High Street  Brigg DN20 0HZ,North Lincolnshire 013C,North Lincolnshire 013,2322.85798991995,40900.0
node/774100248,Brighouse,,HD62JZ,,,Post Office,,-1.787723,53.7151099,Brighouse HD6 2JZ,Calderdale 019D,Calderdale 019,2522.93577981651,35900.0
node/1026886586,Brighouse,,HD61DN,,,Post Office,,-1.781522,53.7017865,Brighouse HD6 1DN,Calderdale 019E,Calderdale 019,2439.10007757951,35900.0
node/421964411,Brighouse,,HD64DY,,,Post Office,,-1.7762877,53.7232566,Brighouse HD6 4DY,Calderdale 015D,Calderdale 015,900.529723366686,39300.0
node/7099905949,Brighton,1B-2B,BN25FA,Whitehawk Road,,Post Office,Best One,-0.1067895,50.8176111,1B-2B Whitehawk Road  Brighton BN2 5FA,Brighton and Hove 032B,Brighton and Hove 032,11078.9766407119,48600.0
node/19223806,Brighton,,BN12TA,Churchill Square,,Post Office,WHSmith,-0.146164,50.8234672,Churchill Square  Brighton BN1 2TA,Brighton and Hove 027A,Brighton and Hove 027,3843.92419175027,49200.0
node/7099905952,Brighton,148,BN16FJ,Preston Drove,,Post Office,WH Smiths,-0.135314,50.8433537,148 Preston Drove  Brighton BN1 6FJ,Brighton and Hove 010C,Brighton and Hove 010,9384.05797101449,72100.0
node/1168747725,Brighton,26,BN15EG,Eldred Avenue,,Post Office,,-0.1565704,50.8573572,26 Eldred Avenue  Brighton BN1 5EG,Brighton and Hove 003C,Brighton and Hove 003,2706.3969382176,57300.0
node/1168747737,Brighton,28,BN412LE,South Street,Portslade,,,-0.219856,50.842271,28 South Street Portslade Brighton BN41 2LE,Brighton and Hove 012D,Brighton and Hove 012,6035.07434235608,44400.0
node/1168747654,Brighton,86-88,BN18XQ,Old London Road,Patcham,,,-0.1501671,50.8631102,86-88 Old London Road Patcham Brighton BN1 8XQ,Brighton and Hove 003B,Brighton and Hove 003,437.263885539747,57300.0
node/1168747806,Brighton,95,BN412DF,Mill Lane,Portslade,Post Office,,-0.21069,50.843497,95 Mill Lane Portslade Brighton BN41 2DF,Brighton and Hove 013F,Brighton and Hove 013,4254.8596112311,51300.0
node/1168747487,Brighton,,BN19QU,Refectory Road,Falmer,Post Office,Post Office,-0.0879735,50.8675525,Refectory Road Falmer Brighton BN1 9QU,Brighton and Hove 002B,Brighton and Hove 002,1586.75415840073,40000.0
node/419697935,Brighton,82,BN14JF,London Road,,Post Office,,-0.1377195,50.8328151,82 London Road  Brighton BN1 4JF,Brighton and Hove 027C,Brighton and Hove 027,9844.84096198603,49200.0
node/5525167957,Brighton,350,BN18LJ,Carden Avenue,,Post Office,,-0.1307621,50.8624951,350 Carden Avenue  Brighton BN1 8LJ,Brighton and Hove 001C,Brighton and Hove 001,5134.52914798206,51900.0
node/43397563,Brighton,64,BN18EJ,Woodbourne Avenue,,Post Office,,-0.139912,50.8561813,64 Woodbourne Avenue  Brighton BN1 8EJ,Brighton and Hove 004B,Brighton and Hove 004,4036.7757109258,63500.0
node/4492845627,Brighton,7,BN17GE,Hollingbury Place,,Post Office,,-0.1308633,50.8440402,7 Hollingbury Place  Brighton BN1 7GE,Brighton and Hove 010A,Brighton and Hove 010,11298.0132450331,72100.0
node/1168747699,Brighton & Hove,,BN28FB,Lustrells Vale,,Post Office,,-0.0403625,50.8064824,Lustrells Vale  Brighton & Hove BN2 8FB,Brighton and Hove 033B,Brighton and Hove 033,3458.74464518532,53700.0
node/5438006824,Brighton & Hove,1,BN24LW,Leybourne Parade,,Post Office,Post Office Ltd,-0.096424,50.8423647,1 Leybourne Parade  Brighton & Hove BN2 4LW,Brighton and Hove 009A,Brighton and Hove 009,1495.56868537666,42500.0
node/1168747817,Brighton & Hove,,BN24GB,The Highway,,Post Office,,-0.1151792,50.8456191,The Highway  Brighton & Hove BN2 4GB,Brighton and Hove 008E,Brighton and Hove 008,5646.10389610389,37700.0
node/5524856717,Brighton & Hove,36,BN24TG,Widdicombe Way,,Post Office,Premier,-0.1097835,50.8450749,36 Widdicombe Way  Brighton & Hove BN2 4TG,Brighton and Hove 009B,Brighton and Hove 009,6443.29896907216,42500.0
node/5524819261,Brighton & Hove,6,BN23HP,Lewes Road,,Post Office,,-0.129518,50.8324742,6 Lewes Road  Brighton & Hove BN2 3HP,Brighton and Hove 015B,Brighton and Hove 015,13185.7031857031,50300.0
node/1168747675,Brighton & Hove,,BN27HQ,Marine Drive,Rottingdean,Post Office,,-0.0570344,50.8035413,Marine Drive Rottingdean Brighton & Hove BN2 7HQ,Brighton and Hove 033D,Brighton and Hove 033,1210.75298694081,53700.0
node/7201386328,Brighton & Hove,,BN26ND,Falmer Road,,Post Office,,-0.0750492,50.8364782,Falmer Road  Brighton & Hove BN2 6ND,Brighton and Hove 017A,Brighton and Hove 017,3295.01915708812,50500.0
node/393099759,Brighton & Hove,110,BN26TD,Cowley Drive,,Post Office,A. G. Hammond,-0.063742,50.8274997,110 Cowley Drive  Brighton & Hove BN2 6TD,Brighton and Hove 017F,Brighton and Hove 017,923.992482773021,50500.0
node/1168747665,Brighton & Hove,80,BN29SL,Islingword Road,,Post Office,,-0.124901,50.8278464,80 Islingword Road  Brighton & Hove BN2 9SL,Brighton and Hove 018B,Brighton and Hove 018,16635.1606805293,54900.0
node/1168747455,Brighton & Hove,46,BN19JQ,Barcombe Road,,,,-0.1070154,50.8561533,46 Barcombe Road  Brighton & Hove BN1 9JQ,Brighton and Hove 002D,Brighton and Hove 002,5879.72368955709,40000.0
node/9995160817,Brighton & Hove,62,BN11AA,North Road,,Royal Mail,Royal Mail,-0.1406757,50.8260062,62 North Road  Brighton & Hove BN1 1AA,Brighton and Hove 027E,Brighton and Hove 027,6379.07137907137,49200.0
node/29267972,Bristol,30,BS483HH,West Town Road,Backwell,Post Office,,-2.7413065,51.4132595,30 West Town Road Backwell Bristol BS48 3HH,North Somerset 011A,North Somerset 011,750.482847420215,62200.0
node/3400970792,Bristol,425,BS56NA,Stapleton Road,,,,-2.5647571,51.4696633,425 Stapleton Road  Bristol BS5 6NA,Bristol 057A,Bristol 057,13267.9738562091,42300.0
node/27537130,Bristol,141-145,BS107LZ,Station Road,,Post Office,,-2.6295872,51.5114832,141-145 Station Road  Bristol BS10 7LZ,Bristol 001B,Bristol 001,4804.66888994759,46300.0
node/4044686345,Bristol,10,BS41LZ,Melvin Square,,Post Office,Best-one,-2.5855633,51.4282737,10 Melvin Square  Bristol BS4 1LZ,Bristol 045D,Bristol 045,7085.04098360655,36700.0
node/3756647296,Bristol,193-195,BS119EG,Avonmouth Road,,Post Office,,-2.6952883,51.4990639,193-195 Avonmouth Road  Bristol BS11 9EG,Bristol 008E,Bristol 008,451.502413202553,45200.0
node/3746579036,Bristol,,BS35AG,Saint John's Lane,,Post Office,,-2.5831518,51.4378195,Saint John's Lane  Bristol BS3 5AG,Bristol 037D,Bristol 037,5095.72072072072,52600.0
node/3752212973,Bristol,78-84,BS110QB,Ridingleaze,,,,-2.6574546,51.5023163,78-84 Ridingleaze  Bristol BS11 0QB,Bristol 003C,Bristol 003,3536.58536585365,40600.0
node/3597441153,Bristol,,BS50RB,Stapleton Road,,Post Office,,-2.5744002,51.4606641,Stapleton Road  Bristol BS5 0RB,Bristol 056A,Bristol 056,6839.18669131238,37000.0
node/2757541574,Bristol,22,BS84HG,Regent Street,,Post Office,,-2.6181756,51.4542496,22 Regent Street  Bristol BS8 4HG,Bristol 030C,Bristol 030,10648.6486486486,67100.0
node/4710793148,Bristol,5,BS91EW,Druid Hill,,,,-2.6347309,51.4811737,5 Druid Hill  Bristol BS9 1EW,Bristol 015D,Bristol 015,2911.30670277589,60600.0
node/741660323,Bristol,,BS396JD,High Street,,,,-2.5097872,51.3235067,High Street  Bristol BS39 6JD,Bath and North East Somerset 023A,Bath and North East Somerset 023,1269.16287280498,47000.0
node/370790997,Bristol,,BS495JG,Brinsea Road,Congresbury,Post Office,,-2.8073198,51.3662218,Brinsea Road Congresbury Bristol BS49 5JG,North Somerset 014B,North Somerset 014,179.019141633283,49100.0
node/740386713,Bristol,,BS406JA,Mill Lane,,Post Office,,-2.6549068,51.3106891,Mill Lane  Bristol BS40 6JA,Bath and North East Somerset 021B,Bath and North East Somerset 021,70.2017325619735,56600.0
node/248914321,Bristol,,BS320BQ,Pear Tree Road,,Post Office,,-2.5584226,51.543214,Pear Tree Road  Bristol BS32 0BQ,South Gloucestershire 012B,South Gloucestershire 012,6211.11499475707,61300.0
node/6214473516,Bristol,90,BS148PG,Hollway Road,,Post Office,,-2.5468138,51.4119527,90 Hollway Road  Bristol BS14 8PG,Bristol 049E,Bristol 049,5816.80033769523,42800.0
node/815655557,Bristol,12-14,BS79XA,Gainsborough Square,,Post Office,McColl's,-2.5635131,51.4911638,12-14 Gainsborough Square  Bristol BS7 9XA,Bristol 014A,Bristol 014,1744.94022036414,44000.0
node/5678340760,Bristol,,BS494NF,Bishops Road,Claverham,Post Office,,-2.7936507,51.3910712,Bishops Road Claverham Bristol BS49 4NF,North Somerset 012A,North Somerset 012,287.579189863697,51900.0
node/740386330,Bristol,2,BS408SH,South Parade,,Post Office,,-2.6105925,51.3659017,2 South Parade  Bristol BS40 8SH,Bath and North East Somerset 021A,Bath and North East Somerset 021,89.6298573058755,56600.0
node/746937696,Bristol,,BS255NB,Front Street,,,,-2.803777,51.3354078,Front Street  Bristol BS25 5NB,North Somerset 024E,North Somerset 024,253.238397529381,53500.0
node/741671057,Bristol,,BS397QG,,,Post Office,The Co-noperative Food,-2.5016735,51.3067008,Bristol BS39 7QG,Bath and North East Somerset 023D,Bath and North East Somerset 023,4153.11004784689,47000.0
node/746611238,Bristol,,BS361JX,Flaxpits Lane,,Post Office,,-2.5079537,51.522582,Flaxpits Lane  Bristol BS36 1JX,South Gloucestershire 016C,South Gloucestershire 016,348.181205793196,49900.0
node/746859951,Bristol,39,BS311PW,Chandag Road,,Post Office,,-2.4878785,51.4087536,39 Chandag Road  Bristol BS31 1PW,Bath and North East Somerset 003B,Bath and North East Somerset 003,954.478707782672,55400.0
node/1462571374,Bristol,103,BS153QG,High Street,,,,-2.5141733,51.4484406,103 High Street  Bristol BS15 3QG,South Gloucestershire 031A,South Gloucestershire 031,5588.75219683655,50500.0
node/1123026498,Brixham,1,TQ58JW,Cambridge Road,,Post Office,,-3.52798,50.394403,1 Cambridge Road  Brixham TQ5 8JW,Torbay 017B,Torbay 017,3406.89655172413,38100.0
node/1712982878,Brixham,75,TQ58AG,Fore Street,,Post Office,Co-op Food,-3.5128183,50.3952704,75 Fore Street  Brixham TQ5 8AG,Torbay 017D,Torbay 017,5897.31512011304,38100.0
node/615262929,Brixham,51,TQ50NH,Stoke Gabriel Road,Galmpton,Post Office,,-3.5675352,50.3955296,51 Stoke Gabriel Road Galmpton Brixham TQ5 0NH,Torbay 016E,Torbay 016,270.60425175411,43800.0
node/1765672464,Brixham,95-101,TQ59LA,Drew Street,,Post Office,Spar,-3.5198509,50.3861312,95-101 Drew Street  Brixham TQ5 9LA,Torbay 018E,Torbay 018,6359.26573426573,38000.0
node/380950724,Broadbridge Heath,48-50,RH123LW,Billingshurst Road,,Post Office,One Stop Stores Ltd,-0.36276,51.0715655,48-50 Billingshurst Road  Broadbridge Heath RH12 3LW,Horsham 003A,Horsham 003,3599.80139026812,53600.0
node/730817852,"Broadhempston, Totnes",,TQ96BQ,,,,,-3.690544,50.4840275,"Broadhempston, Totnes TQ9 6BQ",Teignbridge 019B,Teignbridge 019,72.4113936836434,48200.0
node/7095673384,Broadstairs,475,CT102QJ,Margate Road,,Post Office,Post Office,1.3995203,51.3587138,475 Margate Road  Broadstairs CT10 2QJ,Thanet 011E,Thanet 011,595.478685904967,36400.0
node/7095486235,Broadstairs,15-16,CT102AD,The Broadway,,Post Office,Post Office,1.4322415,51.3602857,15-16 The Broadway  Broadstairs CT10 2AD,Thanet 010C,Thanet 010,3866.77282377919,42100.0
node/904934339,Broadstairs,210,CT102EW,Ramsgate Road,,Post Office,,1.426206,51.3483931,210 Ramsgate Road  Broadstairs CT10 2EW,Thanet 012E,Thanet 012,3254.99412455934,40500.0
node/9822598898,Broadstairs,27,CT103DF,Beacon Road,St Peters,,,1.4243905,51.3689484,27 Beacon Road St Peters Broadstairs CT10 3DF,Thanet 006A,Thanet 006,6720.29702970297,36800.0
node/7090942168,Broadstairs,5,CT101LP,High Street,,Post Office,Londis,1.441448,51.3583894,5 High Street  Broadstairs CT10 1LP,Thanet 010B,Thanet 010,5042.37288135593,42100.0
node/5639467458,Broadway,,WR127PJ,Main Street,Willersey,Post Office,,-1.8472,52.0545,Main Street Willersey Broadway WR12 7PJ,Cotswold 001B,Cotswold 001,48.9942730474736,48000.0
node/2047233285,Brockenhurst,,SO427WD,Main Road,East Boldre,,,-1.4725838,50.8050921,Main Road East Boldre Brockenhurst SO42 7WD,New Forest 017B,New Forest 017,16.9428271706184,47000.0
node/5931271302,Bromborough,158,CH626BB,Allport Road,,Post Office,,-2.9853689,53.3221738,158 Allport Road  Bromborough CH62 6BB,Wirral 039D,Wirral 039,3032.50288731232,39500.0
node/251707628,Bromley,127,BR20TY,Westmoreland Road,,,,0.0017599,51.3922977,127 Westmoreland Road  Bromley BR2 0TY,Bromley 021B,Bromley 021,4739.51375901683,66700.0
node/8940057786,Bromley,9,BR14DT,Sundridge Parade,Plaistow Lane,Post Office,,0.0204722,51.4143428,9 Sundridge Parade Plaistow Lane Bromley BR1 4DT,Bromley 008E,Bromley 008,7003.27064595257,60000.0
node/11064410914,Bromley,488,BR14PW,Bromley Road,,Post Office,Post Office,-0.0036498,51.4236304,488 Bromley Road  Bromley BR1 4PW,Lewisham 038D,Lewisham 038,6010.63829787234,45300.0
node/11065792624,Bromley,132-138,BR11EZ,High Street,,Post Office,Post Office,0.0149391,51.4043512,132-138 High Street  Bromley BR1 1EZ,Bromley 018C,Bromley 018,4994.75890985325,69600.0
node/2196145371,Bromley,34,BR29BE,Letchworth Drive,,Post Office,,0.0151089,51.3906257,34 Letchworth Drive  Bromley BR2 9BE,Bromley 018D,Bromley 018,5473.28959700093,69600.0
node/8804889366,Bromsberrow Heath,,HR81PG,"Bromsberrow Heath Business Park,",,Post Office,,-2.3920399,51.9934441,"Bromsberrow Heath Business Park,  Bromsberrow Heath HR8 1PG",Forest of Dean 001A,Forest of Dean 001,41.3976428250885,50500.0
node/5626816815,Bromsgrove,23,B601JT,Alcester Road,,,,-2.0449003,52.3536913,23 Alcester Road  Bromsgrove B60 1JT,Bromsgrove 008E,Bromsgrove 008,1749.11660777385,55300.0
node/690253016,Bromsgrove,55,B603JZ,Gilbert Road,,,,-2.0710457,52.3194331,55 Gilbert Road  Bromsgrove B60 3JZ,Bromsgrove 013C,Bromsgrove 013,5200.0,42100.0
node/687662040,Bromsgrove,81,B619LY,Stourbridge Road,Fairfield,,,-2.0785773,52.3745499,81 Stourbridge Road Fairfield Bromsgrove B61 9LY,Bromsgrove 002E,Bromsgrove 002,84.6074147139673,49700.0
node/5632894339,Bromyard,,HR74SH,,,,,-2.584403,52.1724099,Bromyard HR7 4SH,Herefordshire 005E,Herefordshire 005,29.6314377349656,41900.0
node/5656067471,Bromyard,,WR65UJ,,,,,-2.4350473,52.1946995,Bromyard WR6 5UJ,Herefordshire 005B,Herefordshire 005,41.9116006111393,41900.0
node/5432446499,Brookhouse,6,LA29PB,Sycamore road,,,,-2.7041963,54.0747203,6 Sycamore road  Brookhouse LA2 9PB,Lancaster 005D,Lancaster 005,922.476786989725,45600.0
node/181319301,Brough,53,HU151JP,Main Street,Elloughton,,,-0.5674388,53.7413866,53 Main Street Elloughton Brough HU15 1JP,East Riding of Yorkshire 032A,East Riding of Yorkshire 032,290.702343285739,55700.0
node/122028098,Brough,77,HU152QS,Main Road,Newport,Post Office,Londis,-0.7018032,53.7618617,77 Main Road Newport Brough HU15 2QS,East Riding of Yorkshire 026E,East Riding of Yorkshire 026,132.269661491473,43700.0
node/259456315,Brough,53,HU152AS,Market Place,South Cave,Post Office,One Stop,-0.6007043,53.7689464,53 Market Place South Cave Brough HU15 2AS,East Riding of Yorkshire 024D,East Riding of Yorkshire 024,124.656068480586,56000.0
node/274050484,Brough,,HU152UB,Clementhorpe Road,Gilberdyke,Post Office,,-0.7415098,53.753218,Clementhorpe Road Gilberdyke Brough HU15 2UB,East Riding of Yorkshire 026A,East Riding of Yorkshire 026,368.15133016806,43700.0
